<?xml version="1.0" ?>
<mapper>
	<sites>
		<site agc="USGS" cat="ST" lat="29.42856679" lng="-99.997287" sna="Nueces Rv at Laguna, TX" sno="08190000"/>
		<site agc="USGS" cat="ST" lat="40.0016726" lng="-99.9929055" sna="SAPPA C NR LYLE, KS" sno="06845110"/>
		<site agc="USGS" cat="ST" lat="40.8361111" lng="-99.9861111" sna="PLATTE RIVER NR COZAD, NE (TOTFLO)" sno="06766500"/>
		<site agc="USGS" cat="ST" lat="46.22805556" lng="-99.9827778" sna="BEAVER CREEK NEAR STRASBURG, ND" sno="06354490"/>
		<site agc="USGS" cat="ST" lat="35.42227237" lng="-99.9692772" sna="Sweetwater Creek near Sweetwater, OK" sno="07301420"/>
		<site agc="USGS" cat="ST" lat="33.18791667" lng="-99.9601361" sna="DMF Brazos Rv nr Rule, TX" sno="08080505"/>
		<site agc="USGS" cat="ST" lat="29.98306389" lng="-99.9566333" sna="E Prong Nueces Rv abv Camp Eagle nr Rocksprings,TX" sno="0818998070"/>
		<site agc="USGS" cat="ST" lat="47.7027775" lng="-99.9490145" sna="SHEYENNE RIVER ABOVE HARVEY, ND" sno="05054500"/>
		<site agc="USGS" cat="ST" lat="31.74931697" lng="-99.9478636" sna="Elm Ck at Ballinger, TX" sno="08127000"/>
		<site agc="USGS" cat="ST" lat="44.1408193" lng="-99.9440087" sna="CEDAR CREEK NEAR KENNEBEC, SD" sno="06442150"/>
		<site agc="USGS" cat="ST" lat="35.903825" lng="-99.9429333" sna="Canadian River near Durham, Ok" sno="07228100"/>
		<site agc="USGS" cat="ST" lat="30.26316667" lng="-99.9335" sna="S Llano Rv nr Telegraph, TX" sno="08149400"/>
		<site agc="USGS" cat="ST" lat="30.90378433" lng="-99.9245183" sna="Clear Ck nr Menard, TX" sno="08143950"/>
		<site agc="USGS" cat="ST" lat="31.5159908" lng="-99.9195226" sna="Concho Rv at Paint Rock, TX" sno="08136500"/>
		<site agc="USGS" cat="ST" lat="38.07527778" lng="-99.9169444" sna="BUCKNER C NR JETMORE, KS" sno="07140900"/>
		<site agc="USGS" cat="ST" lat="35.01172" lng="-99.9037143" sna="Elm Fork of North Fork Red River nr Carl, OK" sno="07303400"/>
		<site agc="USGS" cat="ST" lat="29.12385307" lng="-99.8947822" sna="Nueces Rv bl Uvalde, TX" sno="08192000"/>
		<site agc="USGS" cat="LK" lat="32.2345761" lng="-99.8889795" sna="Lk Abilene nr Buffalo Gap, TX" sno="08083270"/>
		<site agc="USGS" cat="ST" lat="43.9052407" lng="-99.8761727" sna="MEDICINE CR AT KENNEBEC SD" sno="06442500"/>
		<site agc="USGS" cat="WE" lat="43.96444444" lng="-99.8727778" sna="DORMAN SLOUGH NR KENNEBEC, SD" sno="435752099522200"/>
		<site agc="USGS" cat="ST" lat="39.1061185" lng="-99.8701212" sna="SALINE R NR WAKEENEY, KS" sno="06866900"/>
		<site agc="USGS" cat="ST-CA" lat="40.69049167" lng="-99.8696167" sna="NESS-1132" sno="404126099521101"/>
		<site agc="USGS" cat="ST" lat="41.94166667" lng="-99.8602778" sna="North Loup River at Brewster, Nebr." sno="06785500"/>
		<site agc="USGS" cat="ST" lat="46.11388889" lng="-99.8369444" sna="SOUTH BRANCH BEAVER CREEK NEAR ZEELAND, ND" sno="06354480"/>
		<site agc="USGS" cat="ST" lat="30.5174101" lng="-99.806179" sna="N Llano Rv nr Junction, TX" sno="08148500"/>
		<site agc="USGS" cat="ST" lat="33.644257" lng="-99.8009252" sna="S Wichita Rv nr Benjamin, TX" sno="07311800"/>
		<site agc="USGS" cat="WE" lat="44.02694444" lng="-99.8005556" sna="MILLER POND NR KENNEBEC, SD" sno="440137099480200"/>
		<site agc="USGS" cat="ST" lat="35.9832111" lng="-99.7978" sna="Canadian River near Arnett, Ok" sno="07228160"/>
		<site agc="USGS" cat="ST" lat="33.82064216" lng="-99.7864822" sna="N Wichita Rv nr Truscott, TX" sno="07311700"/>
		<site agc="USGS" cat="ST" lat="30.91906245" lng="-99.7856254" sna="San Saba Rv at Menard, TX" sno="08144500"/>
		<site agc="USGS" cat="ST" lat="29.50467576" lng="-99.7814452" sna="Dry Frio Rv nr Reagan Wells, TX" sno="08196000"/>
		<site agc="USGS" cat="ST" lat="43.0270872" lng="-99.780921" sna="KEYA PAHA R AT WEWELA,SD" sno="06464500"/>
		<site agc="USGS" cat="ST" lat="30.47901389" lng="-99.7780389" sna="S Llano Rv at Flat Rock Ln at Junction, TX" sno="08149900"/>
		<site agc="USGS" cat="ST" lat="36.32666667" lng="-99.7611111" sna="Wolf Creek nr Gage, OK" sno="07235600"/>
		<site agc="USGS" cat="ST" lat="40.73333955" lng="-99.7503943" sna="PLATTE RIVER NEAR LEXINGTON, NEBR." sno="06767000"/>
		<site agc="USGS" cat="ST" lat="32.47540219" lng="-99.7492556" sna="Cat Claw Ck at Abilene, TX" sno="08083420"/>
		<site agc="USGS" cat="ST" lat="29.34527778" lng="-99.7488889" sna="Leona Rv at CR 429A nr Uvalde, TX" sno="08203450"/>
		<site agc="USGS" cat="ST" lat="44.92636916" lng="-99.7470593" sna="UNNAMED TRIB STONE LAKE NEAR LEBANON, SD" sno="06439770"/>
		<site agc="USGS" cat="ST" lat="44.01637796" lng="-99.745113" sna="MEDICINE CREEK NR LOWER BRULE, SD" sno="06442600"/>
		<site agc="USGS" cat="ST" lat="40.8416583" lng="-99.744375" sna="NELS-1074" sno="405030099444001"/>
		<site agc="USGS" cat="ST" lat="29.1544077" lng="-99.7433888" sna="Leona Rv nr Uvalde, TX" sno="08204005"/>
		<site agc="USGS" cat="ST" lat="34.35451979" lng="-99.7403719" sna="Groesbeck Ck at SH 6 nr Quanah, TX" sno="07299670"/>
		<site agc="USGS" cat="ST" lat="30.50435487" lng="-99.7345097" sna="Llano Rv nr Junction, TX" sno="08150000"/>
		<site agc="USGS" cat="LK" lat="32.38553056" lng="-99.7317639" sna="Kirby Lk at Abilene, TX" sno="08083460"/>
		<site agc="USGS" cat="ST" lat="35.87004599" lng="-99.7287223" sna="Canadian River near Roll, OK" sno="07228200"/>
		<site agc="USGS" cat="LK" lat="38.7891792" lng="-99.7206719" sna="CEDAR BLUFF RE NR ELLIS, KS" sno="06861500"/>
		<site agc="USGS" cat="ST" lat="38.11835078" lng="-99.7165124" sna="BUCKNER C AT HANSTON, KS" sno="07141000"/>
		<site agc="USGS" cat="ST" lat="32.49956829" lng="-99.7161995" sna="Cedar Ck at IH 20, Abilene, TX" sno="08083480"/>
		<site agc="USGS" cat="ST" lat="29.48856496" lng="-99.7047756" sna="Frio Rv at Concan, TX" sno="08195000"/>
		<site agc="USGS" cat="ST" lat="29.3736111" lng="-99.7041667" sna="Dry Frio Rv at FM 2690 nr Knippa, TX" sno="08196300"/>
		<site agc="USGS" cat="ST" lat="28.50026313" lng="-99.6819935" sna="Nueces Rv nr Asherton, TX" sno="08193000"/>
		<site agc="USGS" cat="LK" lat="32.59623238" lng="-99.6806436" sna="Ft Phantom Hill Res nr Nugent, TX" sno="08083500"/>
		<site agc="USGS" cat="ST" lat="42.68944444" lng="-99.6788889" sna="Long Pine Creek near Riverview, Nebr." sno="06463500"/>
		<site agc="USGS" cat="ST" lat="29.2457934" lng="-99.6744978" sna="Frio Rv bl Dry Frio Rv nr Uvalde, TX" sno="08197500"/>
		<site agc="USGS" cat="ST" lat="29.82900556" lng="-99.6698667" sna="E Frio Rv nr Leakey, TX" sno="08194755"/>
		<site agc="USGS" cat="ST" lat="32.6901186" lng="-99.6695326" sna="Clear Fk Brazos Rv at Nugent, TX" sno="08084000"/>
		<site agc="USGS" cat="ST" lat="35.62643705" lng="-99.6684386" sna="Washita River near Cheyenne, OK" sno="07316500"/>
		<site agc="USGS" cat="LK" lat="31.50015746" lng="-99.6684022" sna="O. H. Ivie Res nr Voss, TX" sno="08136600"/>
		<site agc="USGS" cat="ST" lat="33.34518889" lng="-99.6663889" sna="Lk Creek nr Weinert, TX" sno="08082450"/>
		<site agc="USGS" cat="ST" lat="29.84261667" lng="-99.6620028" sna="Big Spring Ck nr Leakey, TX" sno="08194753"/>
		<site agc="USGS" cat="ST" lat="38.9233333" lng="-99.6508333" sna="BIG C NR ELLIS, KS" sno="06863420"/>
		<site agc="USGS" cat="ST" lat="38.2066829" lng="-99.6434539" sna="PAWNEE R NR BURDETT, KS" sno="07140850"/>
		<site agc="USGS" cat="ST" lat="32.93094435" lng="-99.642588" sna="California Ck nr Stamford, TX" sno="08084800"/>
		<site agc="USGS" cat="ST" lat="35.2847732" lng="-99.6220406" sna="North Fork Red River near Sayre, OK" sno="07301481"/>
		<site agc="USGS" cat="ST" lat="32.67678588" lng="-99.617031" sna="Deadman Ck nr Nugent, TX" sno="08084100"/>
		<site agc="USGS" cat="ST" lat="32.79275" lng="-99.6120278" sna="Clear Fk Brazos Rv at Lueders, TX" sno="08084200"/>
		<site agc="USGS" cat="ST" lat="29.41833333" lng="-99.6052778" sna="Blanco Ck at SH 127 nr Concan, TX" sno="08197800"/>
		<site agc="USGS" cat="ST" lat="35.8586611" lng="-99.5810389" sna="Canadian River near Peek, Ok" sno="07228205"/>
		<site agc="USGS" cat="ST" lat="39.37667456" lng="-99.5801096" sna="SF SOLOMON R AB WEBSTER RE, KS" sno="06873000"/>
		<site agc="USGS" cat="LK" lat="33.06260684" lng="-99.5795306" sna="Lk Stamford nr Haskell, TX" sno="08084500"/>
		<site agc="USGS" cat="ST" lat="31.49376898" lng="-99.5739532" sna="Colorado Rv nr Stacy, TX" sno="08136700"/>
		<site agc="USGS" cat="WE" lat="44.1586111" lng="-99.5716667" sna="SOUTH BEND POND NR LOWER BRULE, SD" sno="440931099341800"/>
		<site agc="USGS" cat="LK" lat="36.5539241" lng="-99.5715033" sna="Fort Supply Lake near Fort Supply, OK" sno="07236500"/>
		<site agc="USGS" cat="LK" lat="31.8329234" lng="-99.5609037" sna="Hords Ck Lk nr Valera, TX" sno="08141000"/>
		<site agc="USGS" cat="ST" lat="40.70723067" lng="-99.5598289" sna="Spring Creek near Overton, Nebr." sno="06768020"/>
		<site agc="USGS" cat="WE" lat="43.96638889" lng="-99.5583333" sna="POTTER SLOUGH (NORTH) NR LOWER BRULE, SD" sno="435759099333000"/>
		<site agc="USGS" cat="WE" lat="43.95638889" lng="-99.5575" sna="POTTER SLOUGH (SOUTH) NR LOWER BRULE, SD" sno="435723099332700"/>
		<site agc="USGS" cat="ST" lat="43.74832745" lng="-99.5564948" sna="WHITE R NEAR OACOMA,SD" sno="06452000"/>
		<site agc="USGS" cat="ST" lat="29.719" lng="-99.5487" sna="Sabinal Rv bl Mill Ck nr Vanderpool, TX" sno="08197936"/>
		<site agc="USGS" cat="ST" lat="40.68190278" lng="-99.5484583" sna="Platte River  bl Jeffreys Is, nr Overton, Nebr." sno="404055099325501"/>
		<site agc="USGS" cat="ST" lat="40.6825" lng="-99.5405556" sna="Platte River near Overton, Nebr." sno="06768000"/>
		<site agc="USGS" cat="ST" lat="40.1183333" lng="-99.5169444" sna="Sappa Creek near Stamford, Nebr." sno="06847500"/>
		<site agc="USGS" cat="ST" lat="44.02618425" lng="-99.5168029" sna="COUNSELOR CREEK NEAR LOWER BRULE, SD" sno="06442670"/>
		<site agc="USGS" cat="ST" lat="34.85839374" lng="-99.5087007" sna="Salt Fork Red River at Mangum, OK" sno="07300500"/>
		<site agc="USGS" cat="ST" lat="35.16810838" lng="-99.5073128" sna="North Fork Red River near Carter, OK" sno="07301500"/>
		<site agc="USGS" cat="ST" lat="40.7344535" lng="-99.505937" sna="Buffalo Creek near Overton, Nebr." sno="06769000"/>
		<site agc="USGS" cat="ST" lat="35.9723361" lng="-99.5028083" sna="Canadian River near Angora, Ok" sno="07228210"/>
		<site agc="USGS" cat="ST" lat="40.13166667" lng="-99.5025" sna="Republican River near Orleans, Nebr." sno="06844500"/>
		<site agc="USGS" cat="ST" lat="29.4910644" lng="-99.4928241" sna="Sabinal Rv nr Sabinal, TX" sno="08198000"/>
		<site agc="USGS" cat="ST" lat="40.67888889" lng="-99.4891667" sna="Platte R,So-Ch,Cottonwood Ranch nr Overton, Nebr." sno="06768025"/>
		<site agc="USGS" cat="ST" lat="40.67859444" lng="-99.4850194" sna="NERM-1003" sno="404043099290601"/>
		<site agc="USGS" cat="ST" lat="30.0524" lng="-99.4844389" sna="N Fk Guadalupe Rv at Rk Bottom Rd nr Hunt, TX" sno="08165250"/>
		<site agc="USGS" cat="ST" lat="29.31430556" lng="-99.4804722" sna="Sabinal Rv at Sabinal, TX" sno="08198500"/>
		<site agc="USGS" cat="ST" lat="39.9787043" lng="-99.4786584" sna="PRAIRIE DOG C NR WOODRUFF, KS" sno="06848500"/>
		<site agc="USGS" cat="ST" lat="32.98138333" lng="-99.467475" sna="Clear Fk Brazos Rv at Krooked Lodge nr Lueders, TX" sno="08084300"/>
		<site agc="USGS" cat="LK" lat="32.03013987" lng="-99.4653467" sna="Lk Coleman nr Novice, TX" sno="08140770"/>
		<site agc="USGS" cat="ST" lat="33.32926607" lng="-99.4650825" sna="Millers Ck nr Munday, TX" sno="08082700"/>
		<site agc="USGS" cat="ST" lat="29.98018056" lng="-99.4423" sna="S Fk Guadalupe Rv Dws Sycamore Draw nr Hunt, TX" sno="08165400"/>
		<site agc="USGS" cat="ST" lat="40.6855652" lng="-99.439268" sna="Platte R Mid-Ch, Cottonwood Ranch nr Elm Cr, Nebr." sno="06768035"/>
		<site agc="USGS" cat="ST" lat="38.47723614" lng="-99.4381656" sna="WALNUT C AT NEKOMA, KS" sno="07141780"/>
		<site agc="USGS" cat="ST" lat="30.06251944" lng="-99.4178806" sna="Bear Ck nr Hunt, TX" sno="08165290"/>
		<site agc="USGS" cat="ST" lat="47.90777778" lng="-99.4155556" sna="SHEYENNE R AB DEVILS LK STATE OUTLET NR FLORA, ND" sno="05055300"/>
		<site agc="USGS" cat="ST" lat="38.2075145" lng="-99.4062247" sna="PAWNEE R AT ROZEL, KS" sno="07141200"/>
		<site agc="USGS" cat="ST" lat="29.573284" lng="-99.4030997" sna="Seco Ck at Miller Rh nr Utopia, TX" sno="08201500"/>
		<site agc="USGS" cat="ST" lat="40.7288988" lng="-99.3989885" sna="Elm Creek near Elm Creek, Nebr." sno="06769525"/>
		<site agc="USGS" cat="LK" lat="33.4089865" lng="-99.3889688" sna="Millers Ck Res nr Bomarton, TX" sno="08082800"/>
		<site agc="USGS" cat="ST" lat="33.70036966" lng="-99.3886905" sna="Wichita Rv nr Seymour, TX" sno="07311900"/>
		<site agc="USGS" cat="ST" lat="30.06409747" lng="-99.3869916" sna="N Fk Guadalupe Rv nr Hunt, TX" sno="08165300"/>
		<site agc="USGS" cat="LK" lat="31.13822413" lng="-99.3856126" sna="Brady Ck Res nr Brady, TX" sno="08144900"/>
		<site agc="USGS" cat="ST" lat="34.47896485" lng="-99.38231" sna="Salt Fork Red River near Elmer, OK" sno="07301110"/>
		<site agc="USGS" cat="ST" lat="44.077407" lng="-99.3814387" sna="CAMPBELL C NR LEE'S CORNER" sno="06442718"/>
		<site agc="USGS" cat="ST" lat="41.77694444" lng="-99.3791667" sna="North Loup River at Taylor, Nebr." sno="06786000"/>
		<site agc="USGS" cat="ST" lat="48.2433322" lng="-99.3729125" sna="LITTLE COULEE NR LEEDS, ND" sno="05056340"/>
		<site agc="USGS" cat="ST" lat="30.02781944" lng="-99.3616" sna="S Fk Guadalupe Rv at Seago Rd nr Hunt, TX" sno="08165460"/>
		<site agc="USGS" cat="ST" lat="38.71167927" lng="-99.3470492" sna="SMOKY HILL R NR SCHOENCHEN, KS" sno="06862700"/>
		<site agc="USGS" cat="ST-CA" lat="30.15883889" lng="-99.3463694" sna="TPWD Diversion Canal nr Mountain Home, TX" sno="08165705"/>
		<site agc="USGS" cat="ST" lat="30.08103889" lng="-99.3449611" sna="N Fk Guadalupe Rv at Herons Crsg nr Hunt, TX" sno="08165350"/>
		<site agc="USGS" cat="ST" lat="30.1578" lng="-99.3449" sna="Fessenden Br nr Mountain Home, TX" sno="08165712"/>
		<site agc="USGS" cat="ST" lat="42.78055556" lng="-99.3397222" sna="Niobrara River at Mariaville, Nebr." sno="06463720"/>
		<site agc="USGS" cat="ST" lat="31.13822366" lng="-99.3350553" sna="Brady Ck at Brady, TX" sno="08145000"/>
		<site agc="USGS" cat="ST" lat="30.0699307" lng="-99.3328236" sna="S Fk Guadalupe Rv at Hwy 39 nr Hunt, TX" sno="08165495"/>
		<site agc="USGS" cat="LK" lat="43.8161058" lng="-99.3273223" sna="LAKE FRANCIS CASE AT CHAMBERLAIN, SD" sno="06442996"/>
		<site agc="USGS" cat="ST" lat="34.1795833" lng="-99.3233333" sna="Pease Rv nr Vernon, TX" sno="07308200"/>
		<site agc="USGS" cat="ST" lat="30.06993074" lng="-99.3217122" sna="Guadalupe Rv at Hunt, TX" sno="08165500"/>
		<site agc="USGS" cat="ST" lat="38.852234" lng="-99.3181589" sna="BIG C NR HAYS, KS" sno="06863500"/>
		<site agc="USGS" cat="ST" lat="36.85197484" lng="-99.315387" sna="Cimarron River near Buffalo, OK" sno="07157950"/>
		<site agc="USGS" cat="ST" lat="39.6730652" lng="-99.3095409" sna="NF SOLOMON R AT GLADE, KS" sno="06871000"/>
		<site agc="USGS" cat="ST" lat="34.88950479" lng="-99.307028" sna="North Fork Red River blw Altus Dam nr Lugert, OK" sno="07303000"/>
		<site agc="USGS" cat="ST" lat="35.65643696" lng="-99.3062086" sna="Washita River near Hammon, OK" sno="07324200"/>
		<site agc="USGS" cat="LK" lat="34.88561609" lng="-99.2956388" sna="Lake Altus at Lugert, OK" sno="07302500"/>
		<site agc="USGS" cat="ST" lat="38.71223475" lng="-99.292325" sna="SMOKY HILL R BL SCHOENCHEN, KS" sno="06862850"/>
		<site agc="USGS" cat="ST" lat="36.00087809" lng="-99.2909386" sna="Canadian River near Camargo, OK" sno="07228230"/>
		<site agc="USGS" cat="ST" lat="29.37078917" lng="-99.2878185" sna="Seco Ck at Rowe Rh nr D'Hanis, TX" sno="08202700"/>
		<site agc="USGS" cat="ST" lat="39.5594542" lng="-99.2859298" sna="BOW C NR STOCKTON, KS" sno="06871500"/>
		<site agc="USGS" cat="ST" lat="30.10020707" lng="-99.2831006" sna="Johnson Ck nr Ingram, TX" sno="08166000"/>
		<site agc="USGS" cat="ST" lat="36.43670336" lng="-99.2784383" sna="North Canadian River at Woodward, OK" sno="07237500"/>
		<site agc="USGS" cat="ST" lat="47.82138889" lng="-99.2761111" sna="SHEYENNE R BL DEVILS LK STATE OUTLET NR BREMEN, ND" sno="05055400"/>
		<site agc="USGS" cat="ST" lat="33.58092766" lng="-99.2675756" sna="Brazos Rv at Seymour, TX" sno="08082500"/>
		<site agc="USGS" cat="ST" lat="40.66473345" lng="-99.2559277" sna="PLATTE RIVER NEAR ODESSA, NEBR." sno="06770000"/>
		<site agc="USGS" cat="ST" lat="29.79389167" lng="-99.2485944" sna="Medina Rv at Patterson Rd at Medina, TX" sno="0817887350"/>
		<site agc="USGS" cat="ST" lat="29.57003056" lng="-99.2476889" sna="Hondo Ck nr Tarpley, TX" sno="08200000"/>
		<site agc="USGS" cat="ST" lat="38.85223405" lng="-99.2470452" sna="BIG C TR NR HAYS, KS" sno="06863700"/>
		<site agc="USGS" cat="ST" lat="28.42637889" lng="-99.2400322" sna="Nueces Rv at Cotulla, TX" sno="08194000"/>
		<site agc="USGS" cat="ST" lat="32.9345557" lng="-99.2245215" sna="Clear Fk Brazos Rv at Ft Griffin, TX" sno="08085500"/>
		<site agc="USGS" cat="ST" lat="48.4575008" lng="-99.2243037" sna="MAUVAIS COULEE TRIB NO. 3 NR CANDO, ND" sno="05056060"/>
		<site agc="USGS" cat="LK" lat="40.0722222" lng="-99.2119444" sna="Harlan County Lake Near Republican City, Nebr." sno="06849000"/>
		<site agc="USGS" cat="ST" lat="34.50702089" lng="-99.2081389" sna="North Fork Red River near Tipton, OK" sno="07307028"/>
		<site agc="USGS" cat="ST" lat="30.06965378" lng="-99.1953203" sna="Guadalupe Rv abv Bear Ck at Kerrville, TX" sno="08166140"/>
		<site agc="USGS" cat="ST" lat="48.26166538" lng="-99.1876342" sna="BIG COULEE AT HWY 2 NEAR CHURCHS FERRY, ND" sno="05056265"/>
		<site agc="USGS" cat="LK" lat="35.53893787" lng="-99.186202" sna="Foss Reservoir near Foss, OK" sno="07324300"/>
		<site agc="USGS" cat="LK" lat="48.28249926" lng="-99.1740232" sna="LAKE IRVINE NR CHURCHS FERRY, ND" sno="05056260"/>
		<site agc="USGS" cat="ST" lat="32.55929085" lng="-99.170074" sna="Deep Ck at Moran, TX" sno="08086050"/>
		<site agc="USGS" cat="ST" lat="35.5389379" lng="-99.1698128" sna="Washita River near Foss, OK" sno="07324400"/>
		<site agc="USGS" cat="ST" lat="35.8701861" lng="-99.1649583" sna="Canadian River near Rhea, Ok." sno="07228240"/>
		<site agc="USGS" cat="ST" lat="30.053266" lng="-99.163375" sna="Guadalupe Rv at Kerrville, TX" sno="08166200"/>
		<site agc="USGS" cat="ST" lat="38.7147345" lng="-99.1537086" sna="SMOKY HILL R AT PFEIFER, KS" sno="06863000"/>
		<site agc="USGS" cat="LK" lat="33.7584266" lng="-99.151183" sna="Lk Kemp nr Mabelle, TX" sno="07312000"/>
		<site agc="USGS" cat="ST" lat="28.73664429" lng="-99.1447556" sna="Frio Rv nr Derby, TX" sno="08205500"/>
		<site agc="USGS" cat="ST" lat="33.7600934" lng="-99.1428495" sna="Wichita Rv nr Mabelle, TX" sno="07312100"/>
		<site agc="USGS" cat="ST" lat="32.73289717" lng="-99.1406299" sna="Hubbard Ck bl Albany, TX" sno="08086212"/>
		<site agc="USGS" cat="ST" lat="43.49944368" lng="-99.1206476" sna="SNAKE CREEK NEAR BIJOU HILLS, SD" sno="06452275"/>
		<site agc="USGS" cat="ST" lat="29.3761111" lng="-99.1166667" sna="Hondo Ck at SH 173 nr Hondo, TX" sno="08200720"/>
		<site agc="USGS" cat="ST" lat="48.48650278" lng="-99.1119056" sna="Mauvais Coulee at Highway 17 near Cando, ND" sno="05056019"/>
		<site agc="USGS" cat="ST" lat="29.98777778" lng="-99.11" sna="Guadalupe Rv nr Center Point, TX" sno="08166250"/>
		<site agc="USGS" cat="ST" lat="30.66073685" lng="-99.1092185" sna="Llano Rv nr Mason, TX" sno="08150700"/>
		<site agc="USGS" cat="ST" lat="34.6381266" lng="-99.103691" sna="North Fork Red River near Headrick, OK" sno="07305000"/>
		<site agc="USGS" cat="ST" lat="48.4480588" lng="-99.1026354" sna="MAUVAIS COULEE NR CANDO, ND" sno="05056100"/>
		<site agc="USGS" cat="ST" lat="39.4397325" lng="-99.1017567" sna="SF SOLOMON R AT WOODSTON, KS" sno="06873460"/>
		<site agc="USGS" cat="ST" lat="29.56777778" lng="-99.0969444" sna="Middle Verde Ck at SH 173 nr Bandera, TX" sno="08200977"/>
		<site agc="USGS" cat="ST" lat="30.64351548" lng="-99.0958848" sna="Beaver Ck nr Mason, TX" sno="08150800"/>
		<site agc="USGS" cat="LK" lat="48.3258347" lng="-99.0954114" sna="LAKE ALICE NR CHURCHS FERRY, ND" sno="05056250"/>
		<site agc="USGS" cat="ST" lat="40.65805556" lng="-99.0861111" sna="Platte River near Kearney, Nebr." sno="06770200"/>
		<site agc="USGS" cat="LK" lat="32.7690077" lng="-99.0728504" sna="Hubbard Ck Res Site P17 nr Breckenridge, TX" sno="324608099042101"/>
		<site agc="USGS" cat="ST" lat="29.72383537" lng="-99.070035" sna="Medina Rv at Bandera, TX" sno="08178880"/>
		<site agc="USGS" cat="ST" lat="35.6095" lng="-99.0608333" sna="West Barnitz Creek near Arapaho, Ok" sno="07324480"/>
		<site agc="USGS" cat="ST" lat="35.90606944" lng="-99.0606806" sna="Canadian River near Aledo, OK" sno="07228241"/>
		<site agc="USGS" cat="LK" lat="32.7815074" lng="-99.0570167" sna="Hubbard Ck Res Site P16 nr Breckenridge, TX" sno="324653099032401"/>
		<site agc="USGS" cat="LK" lat="32.8006736" lng="-99.0381273" sna="Hubbard Ck Res Site P15 nr Breckenridge, TX" sno="324802099021601"/>
		<site agc="USGS" cat="LK" lat="32.81817306" lng="-99.0367383" sna="Hubbard Ck Res Site P14-A nr Breckenridge, TX" sno="324826099010601"/>
		<site agc="USGS" cat="ST" lat="45.4523638" lng="-99.0292228" sna="PREACHERS RUN TRIB AT IPSWICH SD" sno="06473300"/>
		<site agc="USGS" cat="ST" lat="38.46167948" lng="-99.014817" sna="WALNUT C AT ALBERT, KS" sno="07141900"/>
		<site agc="USGS" cat="ST" lat="32.64845613" lng="-99.0045146" sna="Big Sandy Ck abv Breckenridge, TX" sno="08086290"/>
		<site agc="USGS" cat="LK" lat="31.83709365" lng="-99.003942" sna="Lk Brownwood nr Brownwood, TX" sno="08143000"/>
		<site agc="USGS" cat="ST" lat="38.20362484" lng="-99.0023198" sna="ARKANSAS R NR LARNED, KS" sno="07141220"/>
		<site agc="USGS" cat="LK" lat="32.78039685" lng="-99.0017374" sna="Hubbard Ck Res Site P9 nr Breckenridge, TX" sno="324649099000501"/>
		<site agc="USGS" cat="LK" lat="32.81511795" lng="-99.0017374" sna="Hubbard Ck Res Site P14 nr Breckenridge, TX" sno="324854099000501"/>
		<site agc="USGS" cat="LK" lat="32.7684528" lng="-99.000904" sna="Hubbard Ck Res Site P10 nr Breckenridge, TX" sno="324606099000201"/>
	</sites>
	<sites>
		<site agc="USGS" cat="ST" lat="31.83013918" lng="-100.9937215" sna="N Concho Rv at Sterling City, TX" sno="08133500"/>
		<site agc="USGS" cat="ST" lat="29.88598333" lng="-100.9934028" sna="Devils Rv abv Dolan Ck nr Comstock, TX" sno="08449050"/>
		<site agc="USGS" cat="ST" lat="29.888325" lng="-100.9898028" sna="Dolan Ck abv Devils River nr Comstock, TX" sno="08449100"/>
		<site agc="USGS" cat="ST" lat="46.8338827" lng="-100.9745789" sna="HEART RIVER NR MANDAN, ND" sno="06349000"/>
		<site agc="USGS" cat="LK" lat="48.97779687" lng="-100.9629333" sna="J. CLARK SALYER POOL 357 NR WESTHOPE, ND" sno="05123990"/>
		<site agc="USGS" cat="ST" lat="48.9964079" lng="-100.9584889" sna="SOURIS RIVER NR WESTHOPE, ND" sno="05124000"/>
		<site agc="USGS" cat="ST" lat="48.058342" lng="-100.9504287" sna="BONNES COULEE NEAR VELVA, ND" sno="05119410"/>
		<site agc="USGS" cat="ST" lat="34.62783574" lng="-100.9406994" sna="Pr Dog Twn Fk Red Rv nr Brice, TX" sno="07298500"/>
		<site agc="USGS" cat="ST" lat="46.3761111" lng="-100.9344444" sna="CANNONBALL RIVER AT BREIEN, ND" sno="06354000"/>
		<site agc="USGS" cat="ST" lat="47.07971406" lng="-100.9323594" sna="MISSOURI RIVER AT PRICE, ND" sno="06342020"/>
		<site agc="USGS" cat="LK" lat="32.34484228" lng="-100.919836" sna="Lk Colorado City nr Colorado City, TX" sno="08123000"/>
		<site agc="USGS" cat="ST" lat="32.57372368" lng="-100.9078941" sna="Deep Ck nr Dunn, TX" sno="08120500"/>
		<site agc="USGS" cat="LK" lat="35.00060555" lng="-100.8948666" sna="Greenbelt Lk nr Clarendon, TX" sno="07299840"/>
		<site agc="USGS" cat="ST" lat="43.3255586" lng="-100.8837556" sna="LITTLE WHITE R NEAR ROSEBUD SD" sno="06449500"/>
		<site agc="USGS" cat="ST" lat="32.39261865" lng="-100.8787246" sna="Colorado Rv at Colorado City, TX" sno="08121000"/>
		<site agc="USGS" cat="ST" lat="40.2347215" lng="-100.8782139" sna="Frenchman Creek at Culbertson, Nebr." sno="06835500"/>
		<site agc="USGS" cat="ST" lat="37.9558565" lng="-100.8773844" sna="ARKANSAS R AT GARDEN CITY, KS" sno="07139000"/>
		<site agc="USGS" cat="ST" lat="48.5841795" lng="-100.8626452" sna="DEEP RIVER NR UPHAM, ND" sno="05123510"/>
		<site agc="USGS" cat="LK" lat="32.2815116" lng="-100.8587228" sna="Champion Ck Res nr Colorado City, TX" sno="08123600"/>
		<site agc="USGS" cat="ST" lat="38.7947354" lng="-100.8584796" sna="SMOKY HILL R AT ELKADER, KS" sno="06860000"/>
		<site agc="USGS" cat="ST" lat="45.2558171" lng="-100.8429214" sna="MOREAU R NEAR WHITEHORSE,SD" sno="06360500"/>
		<site agc="USGS" cat="ST" lat="46.75" lng="-100.8386111" sna="MISSOURI RIVER BELOW MANDAN, ND" sno="06349070"/>
		<site agc="USGS" cat="ST" lat="46.81416667" lng="-100.8213889" sna="MISSOURI RIVER AT BISMARCK, ND" sno="06342500"/>
		<site agc="USGS" cat="ST" lat="45.65777405" lng="-100.8181933" sna="GRAND R AT LITTLE EAGLE,SD" sno="06357800"/>
		<site agc="USGS" cat="ST" lat="46.9149922" lng="-100.8137419" sna="BURNT CREEK NR BISMARCK, ND" sno="06342450"/>
		<site agc="USGS" cat="ST" lat="46.78416667" lng="-100.7794444" sna="DRAIN ON WACHTER AVE AT BISMARCK, ND" sno="464703100464600"/>
		<site agc="USGS" cat="ST" lat="41.11805396" lng="-100.7732011" sna="SOUTH PLATTE RIVER AT NORTH PLATTE, NEBR." sno="06765500"/>
		<site agc="USGS" cat="ST" lat="46.88166667" lng="-100.7644444" sna="HAY CREEK AT 71ST AVE NEAR BISMARCK, ND" sno="06349576"/>
		<site agc="USGS" cat="ST" lat="32.05374399" lng="-100.762052" sna="Colorado Rv abv Silver, TX" sno="08123850"/>
		<site agc="USGS" cat="ST" lat="46.85249286" lng="-100.7587392" sna="HAY CREEK AT 43RD AVENUE NR BISMARCK, ND" sno="06349580"/>
		<site agc="USGS" cat="ST" lat="40.76130505" lng="-100.7574115" sna="Medicine Creek Above Wellfleet Lake, Nebr." sno="404541100452501"/>
		<site agc="USGS" cat="ST" lat="43.60138549" lng="-100.7498608" sna="LITTLE WHITE R BELOW WHITE RIVER,SD" sno="06450500"/>
		<site agc="USGS" cat="ST" lat="46.65638889" lng="-100.7391667" sna="MISSOURI RIVER NR SCHMIDT, ND" sno="06349700"/>
		<site agc="USGS" cat="ST" lat="46.82277098" lng="-100.737349" sna="HAY CREEK AT DIVIDE AVENUE IN BISMARCK, ND" sno="06349590"/>
		<site agc="USGS" cat="ST" lat="46.8072156" lng="-100.7340153" sna="HAY CREEK AT MAIN AVENUE IN BISMARCK, ND" sno="06349600"/>
		<site agc="USGS" cat="ST" lat="40.74457209" lng="-100.7307918" sna="Medicine Creek Near Wellfleet, Nebr." sno="404440100434901"/>
		<site agc="USGS" cat="ST" lat="48.15972928" lng="-100.7295863" sna="SOURIS RIVER NR VERENDRYE, ND" sno="05120000"/>
		<site agc="USGS" cat="ST" lat="44.21053769" lng="-100.7265279" sna="PLUM CREEK BELOW HAYES, SD" sno="06441110"/>
		<site agc="USGS" cat="ST" lat="31.42738264" lng="-100.7112125" sna="Middle Concho Rv abv Tankersley, TX" sno="08128400"/>
		<site agc="USGS" cat="ST" lat="34.93560669" lng="-100.6965246" sna="Lelia Lk Ck bl Bell Ck nr Hedley, TX" sno="07299890"/>
		<site agc="USGS" cat="ST" lat="43.71304839" lng="-100.6850534" sna="WHITE RIVER NEAR WHITE RIVER, SD" sno="06447450"/>
		<site agc="USGS" cat="ST" lat="43.27378198" lng="-100.6846396" sna="ANTELOPE CR NEAR MISSION SD" sno="06463900"/>
		<site agc="USGS" cat="ST" lat="40.14583655" lng="-100.6732083" sna="Driftwood Creek near McCook, Nebr." sno="06836500"/>
		<site agc="USGS" cat="ST" lat="46.79443787" lng="-100.6573459" sna="APPLE CREEK NR MENOKEN, ND" sno="06349500"/>
		<site agc="USGS" cat="ST" lat="31.33016396" lng="-100.6403767" sna="Spring Ck abv Tankersley, TX" sno="08129300"/>
		<site agc="USGS" cat="ST" lat="31.5926549" lng="-100.6370449" sna="N Concho Rv nr Carlsbad, TX" sno="08134000"/>
		<site agc="USGS" cat="ST" lat="31.27405465" lng="-100.6309318" sna="Dove Ck at Knickerbocker, TX" sno="08130500"/>
		<site agc="USGS" cat="ST" lat="40.18777778" lng="-100.6186111" sna="Republican River at McCook, Nebr." sno="06837000"/>
		<site agc="USGS" cat="ST" lat="40.65666667" lng="-100.6119444" sna="MEDICINE CREEK AT MAYWOOD, NEBR." sno="06839000"/>
		<site agc="USGS" cat="ST" lat="31.3309973" lng="-100.600931" sna="Spring Ck abv Twin Buttes Res nr San Angelo, TX" sno="08130700"/>
		<site agc="USGS" cat="ST" lat="39.98500557" lng="-100.560148" sna="BEAVER C AT CEDAR BLUFFS, KS" sno="06846500"/>
		<site agc="USGS" cat="ST" lat="45.7119422" lng="-100.5593015" sna="OAK CR NEAR WAKPALA,SD" sno="06354882"/>
		<site agc="USGS" cat="ST" lat="42.80279444" lng="-100.5568083" sna="NES9-0921" sno="424810100332501"/>
		<site agc="USGS" cat="ST" lat="31.54265769" lng="-100.5550977" sna="N Concho Rv nr Grape Creek, TX" sno="08134250"/>
		<site agc="USGS" cat="ST" lat="48.13833739" lng="-100.5398623" sna="WINTERING RIVER NR KARLSRUHE, ND" sno="05120500"/>
		<site agc="USGS" cat="LK" lat="31.3821071" lng="-100.5384294" sna="Twin Buttes Res nr San Angelo, TX" sno="08131200"/>
		<site agc="USGS" cat="ST" lat="41.7786111" lng="-100.5252778" sna="Dismal River near Thedford, Nebr." sno="06775900"/>
		<site agc="USGS" cat="ST" lat="36.82224819" lng="-100.5193158" sna="Beaver River at Beaver, OK" sno="07234000"/>
		<site agc="USGS" cat="LK" lat="31.8795883" lng="-100.5173219" sna="E. V. Spence Res nr Robert Lee, TX" sno="08123950"/>
		<site agc="USGS" cat="ST" lat="44.37998106" lng="-100.5168042" sna="WILLOW CREEK ABOVE FORT PIERRE, SD" sno="06441390"/>
		<site agc="USGS" cat="ST" lat="43.62346647" lng="-100.510497" sna="UNNAMED TRIB WHITE THUNDER CREEK NEAR WOOD, SD" sno="06451600"/>
		<site agc="USGS" cat="ST" lat="31.18711186" lng="-100.5020388" sna="S Concho Rv at Christoval, TX" sno="08128000"/>
		<site agc="USGS" cat="ST" lat="40.2347222" lng="-100.5008333" sna="Red Willow Creek near Red Willow, Nebr." sno="06838000"/>
		<site agc="USGS" cat="ST" lat="48.275" lng="-100.4927778" sna="SOURIS RIVER WEST OUTFALL AT EATON DAM NR TOWNER" sno="05121000"/>
		<site agc="USGS" cat="ST" lat="37.0111372" lng="-100.4918171" sna="Cimarron River near Forgan, OK" sno="07156900"/>
		<site agc="USGS" cat="ST" lat="48.2758333" lng="-100.4880556" sna="SOURIS RIVER EAST OUTFALL AT EATON DAM NR TOWNER" sno="05121001"/>
		<site agc="USGS" cat="ST" lat="42.8981722" lng="-100.4853861" sna="NES9-0927" sno="425353100290701"/>
		<site agc="USGS" cat="LK" lat="31.48460475" lng="-100.4817616" sna="O. C. Fisher Lk at San Angelo, TX" sno="08134500"/>
		<site agc="USGS" cat="ST" lat="31.88542168" lng="-100.4806543" sna="Colorado Rv at Robert Lee, TX" sno="08124000"/>
		<site agc="USGS" cat="ST" lat="31.30905356" lng="-100.4459254" sna="Pecan Ck nr San Angelo, TX" sno="08131400"/>
		<site agc="USGS" cat="ST" lat="48.5888875" lng="-100.4420787" sna="WILLOW CREEK NR WILLOW CITY, ND" sno="05123400"/>
		<site agc="USGS" cat="ST" lat="48.50555109" lng="-100.4348534" sna="SOURIS RIVER NR BANTRY, ND" sno="05122000"/>
		<site agc="USGS" cat="ST" lat="43.01753466" lng="-100.4133803" sna="SAND CREEK NEAR OLSONVILLE, SD" sno="06464120"/>
		<site agc="USGS" cat="ST" lat="31.454606" lng="-100.4106474" sna="Concho Rv at San Angelo, TX" sno="08136000"/>
		<site agc="USGS" cat="ST" lat="45.1439573" lng="-100.3936355" sna="UNNAMED TRIB SWIFT BIRD BAY LAKE OAHE NR LAPLANT" sno="06361045"/>
		<site agc="USGS" cat="ST" lat="32.78760777" lng="-100.3887183" sna="Clear Fk Brazos Rv nr Roby, TX" sno="08083100"/>
		<site agc="USGS" cat="ST" lat="44.32664897" lng="-100.3843003" sna="BAD R NEAR FORT PIERRE,SD" sno="06441500"/>
		<site agc="USGS" cat="ST" lat="41.01944897" lng="-100.3715219" sna="PLATTE RIVER AT BRADY, NE (TOTFLO)" sno="06766000"/>
		<site agc="USGS" cat="ST" lat="35.935042" lng="-100.3706884" sna="Canadian Rv nr Canadian, TX" sno="07228000"/>
		<site agc="USGS" cat="ST" lat="44.3730377" lng="-100.3679114" sna="MISSOURI R AT PIERRE,SD" sno="06440000"/>
		<site agc="USGS" cat="ST" lat="42.9022222" lng="-100.3622222" sna="Niobrara River near Sparks, Nebr." sno="06461500"/>
		<site agc="USGS" cat="ST" lat="44.35192678" lng="-100.359022" sna="MISSOURI R AT LAFRAMBOISE ISLAND AT PIERRE, SD" sno="06441590"/>
		<site agc="USGS" cat="ST" lat="40.50055556" lng="-100.3227778" sna="MEDICINE CREEK ABOVE HARRY STRUNK LAKE, NE" sno="06841000"/>
		<site agc="USGS" cat="ST" lat="44.3460937" lng="-100.32041" sna="MISSOURI R BL LA FRAMBOISE ISLAND, AT PIERRE,SD" sno="06441592"/>
		<site agc="USGS" cat="LK" lat="32.43873165" lng="-100.3037135" sna="Lk Sweetwater nr Sweetwater, TX" sno="08083200"/>
		<site agc="USGS" cat="ST" lat="43.72582386" lng="-100.2976334" sna="WILLIAMS CREEK NEAR VIVIAN, SD" sno="06451650"/>
		<site agc="USGS" cat="ST" lat="36.23864885" lng="-100.2756889" sna="Wolf Ck at Lipscomb, TX" sno="07235000"/>
		<site agc="USGS" cat="LK" lat="32.04069289" lng="-100.2684287" sna="Oak Ck Res nr Blackwell, TX" sno="08125500"/>
		<site agc="USGS" cat="ST" lat="44.3341497" lng="-100.2654085" sna="MISSOURI R AT FARM ISLAND NR PIERRE, SD" sno="06441595"/>
		<site agc="USGS" cat="ST" lat="46.2686015" lng="-100.2526142" sna="BEAVER CREEK BL LINTON, ND" sno="06354580"/>
		<site agc="USGS" cat="ST" lat="35.2642163" lng="-100.2417855" sna="N Fk Red Rv nr Shamrock, TX" sno="07301300"/>
		<site agc="USGS" cat="ST" lat="29.48108333" lng="-100.2391667" sna="W Nueces Rv nr Brackettville, TX" sno="08190500"/>
		<site agc="USGS" cat="ST" lat="33.3339801" lng="-100.2381622" sna="Salt Fk Brazos Rv nr Aspermont, TX" sno="08082000"/>
		<site agc="USGS" cat="ST" lat="40.37166667" lng="-100.2222222" sna="MEDICINE CREEK BELOW HARRY STRUNK LAKE, NEBR." sno="06842500"/>
		<site agc="USGS" cat="ST" lat="34.95755294" lng="-100.220949" sna="Salt Fk Red Rv nr Wellington, TX" sno="07300000"/>
		<site agc="USGS" cat="ST" lat="37.032528" lng="-100.2112531" sna="CROOKED C NR ENGLEWOOD, KS" sno="07157500"/>
		<site agc="USGS" cat="ST" lat="41.42277778" lng="-100.2033333" sna="South Loup River at Arnold, Nebr." sno="06781600"/>
		<site agc="USGS" cat="ST" lat="34.56922728" lng="-100.1940023" sna="Pr Dog Twn Fk Red Rv nr Childress, TX" sno="07299540"/>
		<site agc="USGS" cat="ST" lat="33.0081577" lng="-100.1806589" sna="DMF Brazos Rv nr Aspermont, TX" sno="08080500"/>
		<site agc="USGS" cat="ST" lat="40.28444444" lng="-100.1436111" sna="Republican River at Cambridge, Nebr." sno="06843500"/>
		<site agc="USGS" cat="ST" lat="35.47310419" lng="-100.1209501" sna="Sweetwater Ck nr Kelton, TX" sno="07301410"/>
		<site agc="USGS" cat="ST" lat="43.12917164" lng="-100.1070671" sna="KEYA PAHA R NEAR KEYAPAHA,SD" sno="06464100"/>
		<site agc="USGS" cat="ST" lat="39.769727" lng="-100.1006875" sna="PRAIRIE DOG C AB KEITH SEBELIUS LAKE, KS" sno="06847900"/>
		<site agc="USGS" cat="ST" lat="41.83091667" lng="-100.0995278" sna="Middle Loup River at Dunning, Nebr." sno="06775500"/>
		<site agc="USGS" cat="ST" lat="38.04916667" lng="-100.0822222" sna="BUCKNER C AB HORSETHIEF RE NR JETMORE, KS" sno="07140880"/>
		<site agc="USGS" cat="ST" lat="33.7959174" lng="-100.0751027" sna="Middle Wichita Rv nr Guthrie, TX" sno="07311630"/>
		<site agc="USGS" cat="ST" lat="32.67455998" lng="-100.0725999" sna="Clear Fk Brazos Rv nr Noodle, TX" sno="08083230"/>
		<site agc="USGS" cat="ST" lat="33.9506365" lng="-100.0648269" sna="N Wichita Rv nr Paducah, TX" sno="07311600"/>
		<site agc="USGS" cat="LK" lat="38.0600185" lng="-100.0495775" sna="HORSETHIEF RE NR JETMORE, KS" sno="07140885"/>
		<site agc="USGS" cat="ST" lat="42.79716389" lng="-100.0455222" sna="NES9-0932" sno="424750100024401"/>
		<site agc="USGS" cat="ST" lat="38.06027778" lng="-100.0452778" sna="BUCKNER C BL HORSETHIEF RE NR JETMORE, KS" sno="07140890"/>
		<site agc="USGS" cat="ST" lat="29.71883333" lng="-100.039575" sna="Nueces Rv nr Barksdale, TX" sno="0818999010"/>
		<site agc="USGS" cat="ST" lat="37.7447427" lng="-100.0329126" sna="ARKANSAS R AT DODGE CITY, KS" sno="07139500"/>
		<site agc="USGS" cat="ST" lat="31.71542973" lng="-100.0264755" sna="Colorado Rv nr Ballinger, TX" sno="08126380"/>
		<site agc="USGS" cat="ST" lat="38.8077898" lng="-100.0226243" sna="SMOKY HILL R NR ARNOLD, KS" sno="06861000"/>
		<site agc="USGS" cat="ST" lat="29.52646667" lng="-100.0183667" sna="Nueces Rv at CR 414 at Montell, TX" sno="08189998"/>
	</sites>
	<colocated_sites>
		<site agc="USGS" cat="ST" lat="33.62203029" lng="-100.2089951" sna="S Wichita Rv bl Low Flow Dam nr Guthrie, TX" sno="07311783"/>
		<site agc="USGS" cat="ST" lat="33.62203029" lng="-100.2089951" sna="S Wichita Rv at Low Flow Dam nr Guthrie, TX" sno="07311782"/>
	</colocated_sites>
	<sites>
		<site agc="USGS" cat="ST" lat="40.02916667" lng="-101.9675" sna="Arikaree River at Haigler, Nebr." sno="06821500"/>
		<site agc="USGS" cat="ST" lat="48.9900156" lng="-101.9582209" sna="SOURIS RIVER NR SHERWOOD, ND" sno="05114000"/>
		<site agc="USGS" cat="ST" lat="43.69388346" lng="-101.9326516" sna="WHITE R NEAR INTERIOR,SD" sno="06446500"/>
		<site agc="USGS" cat="ST" lat="44.5294304" lng="-101.9301531" sna="CHEYENNE R NEAR PLAINVIEW,SD" sno="06438500"/>
		<site agc="USGS" cat="ST" lat="47.2861188" lng="-101.925726" sna="SPRING CREEK AT ZAP, ND" sno="06340000"/>
		<site agc="USGS" cat="ST" lat="35.4703261" lng="-101.879628" sna="Canadian Rv nr Amarillo, TX" sno="07227500"/>
		<site agc="USGS" cat="ST" lat="45.83333269" lng="-101.8678074" sna="WILLOW CREEK NEAR KELDRON, SD" sno="06357620"/>
		<site agc="USGS" cat="ST" lat="40.03944444" lng="-101.8666667" sna="Buffalo Creek near Haigler, Nebr." sno="06823500"/>
		<site agc="USGS" cat="LK" lat="46.5952842" lng="-101.8098704" sna="LAKE TSCHIDA NEAR GLEN ULLIN, ND" sno="06346000"/>
		<site agc="USGS" cat="ST" lat="43.53666558" lng="-101.7985923" sna="BEAR IN THE LODGE CR NEAR WANBLEE,SD" sno="06446700"/>
		<site agc="USGS" cat="ST" lat="47.25388889" lng="-101.7855556" sna="KNIFE RIVER NEAR BEULAH, ND" sno="06340010"/>
		<site agc="USGS" cat="ST" lat="30.65961373" lng="-101.7701244" sna="Pecos Rv nr Sheffield, TX" sno="08447000"/>
		<site agc="USGS" cat="ST" lat="43.9690175" lng="-101.767229" sna="SOUTH FORK BAD R NEAR COTTONWOOD,SD" sno="06440200"/>
		<site agc="USGS" cat="ST" lat="37.9661241" lng="-101.7568387" sna="ARKANSAS R AT SYRACUSE, KS" sno="07138000"/>
		<site agc="USGS" cat="ST" lat="30.314" lng="-101.7415556" sna="Pecos Rv at Brotherton Rh nr Pandale, TX" sno="08447300"/>
		<site agc="USGS" cat="ST" lat="30.4521221" lng="-101.7331788" sna="Independence Ck nr Sheffield, TX" sno="08447020"/>
		<site agc="USGS" cat="ST" lat="40.0422222" lng="-101.7280556" sna="Rock Creek at Parks, Nebr." sno="06824000"/>
		<site agc="USGS" cat="ST" lat="34.17896048" lng="-101.7026748" sna="Running Water Draw at Plainview, TX" sno="08080700"/>
		<site agc="USGS" cat="ST" lat="35.72077778" lng="-101.6625278" sna="Big Blue Ck nr Fritch, TX" sno="07227890"/>
		<site agc="USGS" cat="ST" lat="46.5452839" lng="-101.6454228" sna="ANTELOPE CREEK NR CARSON, ND" sno="06347000"/>
		<site agc="USGS" cat="ST" lat="36.7058583" lng="-101.6368274" sna="Beaver River near Goodwell, OK" sno="07232470"/>
		<site agc="USGS" cat="ST" lat="43.1669155" lng="-101.6327322" sna="LITTLE WHITE R NEAR MARTIN,SD" sno="06447500"/>
		<site agc="USGS" cat="LK" lat="32.22012048" lng="-101.6295723" sna="Natural Dam Salt Lk nr Big Spring, TX" sno="08123640"/>
		<site agc="USGS" cat="ST" lat="47.2852816" lng="-101.6221093" sna="KNIFE RIVER AT HAZEN, ND" sno="06340500"/>
		<site agc="USGS" cat="ST" lat="43.08711217" lng="-101.60387" sna="LAKE CR ABOVE REFUGE NEAR TUTHILL,SD" sno="06448000"/>
		<site agc="USGS" cat="LK" lat="48.45807237" lng="-101.5837731" sna="LAKE DARLING NEAR FOXHOLM, ND" sno="05115500"/>
		<site agc="USGS" cat="ST" lat="41.1261111" lng="-101.5766667" sna="South Platte River at Roscoe, Nebr." sno="06764880"/>
		<site agc="USGS" cat="ST" lat="48.37056947" lng="-101.5701633" sna="DES LACS RIVER AT FOXHOLM, ND" sno="05116500"/>
		<site agc="USGS" cat="LK" lat="35.7105973" lng="-101.5512813" sna="Lk Meredith nr Sanford, TX" sno="07227900"/>
		<site agc="USGS" cat="ST" lat="37.930015" lng="-101.5493371" sna="ARKANSAS R AT KENDALL, KS" sno="07138020"/>
		<site agc="USGS" cat="ST" lat="40.01027778" lng="-101.5419444" sna="South Fork Republican River near Benkelman, Nebr." sno="06827500"/>
		<site agc="USGS" cat="ST" lat="43.7524949" lng="-101.5248665" sna="WHITE R NEAR KADOKA,SD" sno="06447000"/>
		<site agc="USGS" cat="ST" lat="43.1459166" lng="-101.5128713" sna="LAKE CR BELOW REFUGE NEAR TUTHILL,SD" sno="06449000"/>
		<site agc="USGS" cat="ST" lat="48.3722357" lng="-101.5054414" sna="SOURIS RIVER NR FOXHOLM, ND" sno="05116000"/>
		<site agc="USGS" cat="ST" lat="44.0547661" lng="-101.4872815" sna="MEDICINE CREEK NEAR PHILIP, SD" sno="06440850"/>
		<site agc="USGS" cat="ST" lat="46.69444606" lng="-101.4673665" sna="BIG MUDDY CREEK NEAR ALMONT, ND" sno="06347500"/>
		<site agc="USGS" cat="ST" lat="29.8029823" lng="-101.4462223" sna="Pecos Rv nr Langtry, TX" sno="08447410"/>
		<site agc="USGS" cat="ST-DCH" lat="37.89723858" lng="-101.4412815" sna="AMAZON GREAT EASTERN DITCH NR LAKIN, KS" sno="07138050"/>
		<site agc="USGS" cat="LK" lat="34.5453396" lng="-101.4382238" sna="MacKenzie Res nr Silverton, TX" sno="07298100"/>
		<site agc="USGS" cat="ST" lat="43.46166555" lng="-101.4334803" sna="UNNAMED TRIB BUZZARD CREEK NR LONG VALLEY, SD" sno="06447050"/>
		<site agc="USGS" cat="ST" lat="34.83755505" lng="-101.4140578" sna="Pr Dog Twn Fk Red Rv nr Wayside, TX" sno="07297910"/>
		<site agc="USGS" cat="ST" lat="48.2458428" lng="-101.3712745" sna="SOURIS RIVER ABOVE MINOT, ND" sno="05117500"/>
		<site agc="USGS" cat="ST-DCH" lat="37.8722397" lng="-101.3587818" sna="SOUTHSIDE DITCH NR LAKIN, KS" sno="07138063"/>
		<site agc="USGS" cat="ST" lat="47.3624984" lng="-101.3573806" sna="MISSOURI RIVER AB STANTON, ND" sno="06339010"/>
		<site agc="USGS" cat="ST" lat="47.2872222" lng="-101.3397222" sna="MISSOURI RIVER NEAR STANTON, ND" sno="06340700"/>
		<site agc="USGS" cat="ST" lat="46.09166988" lng="-101.333742" sna="CEDAR CREEK NR RALEIGH, ND" sno="06353000"/>
		<site agc="USGS" cat="ST" lat="46.1269476" lng="-101.333187" sna="CANNONBALL RIVER NR RALEIGH, ND" sno="06351200"/>
		<site agc="USGS" cat="LK" lat="32.24373238" lng="-101.3117878" sna="Moss Ck Lk nr Coahoma, TX" sno="08123755"/>
		<site agc="USGS" cat="ST" lat="36.20225497" lng="-101.305993" sna="Palo Duro Ck nr Spearman, TX" sno="07233500"/>
		<site agc="USGS" cat="ST" lat="47.45860915" lng="-101.2990461" sna="DISCOVERY FARMS WATERWAY SITE 1 NEAR UNDERWOOD, ND" sno="472731101175500"/>
		<site agc="USGS" cat="ST" lat="47.45249798" lng="-101.297935" sna="DISCOVERY FARMS WATERWAY SITE 3 NEAR UNDERWOOD, ND" sno="472709101175100"/>
		<site agc="USGS" cat="ST" lat="47.457498" lng="-101.2976572" sna="DISCOVERY FARMS WATERWAY SITE 2 NEAR UNDERWOOD, ND" sno="472727101175000"/>
		<site agc="USGS" cat="ST-DCH" lat="47.4583313" lng="-101.2962683" sna="DISCOVERY FARMS EAST CULVERTS NEAR UNDERWOOD, ND" sno="472730101174500"/>
		<site agc="USGS" cat="ST" lat="32.6287208" lng="-101.2854044" sna="Colorado Rv nr Gail, TX" sno="08117995"/>
		<site agc="USGS" cat="ST" lat="46.85110718" lng="-101.2531972" sna="SWEETBRIAR CREEK NR JUDSON, ND" sno="06348500"/>
		<site agc="USGS" cat="ST" lat="43.10069918" lng="-101.232234" sna="LITTLE WHITE R NEAR VETAL,SD" sno="06449100"/>
		<site agc="USGS" cat="ST" lat="40.14055556" lng="-101.2297222" sna="Republican River at Stratton, Nebr." sno="06828500"/>
		<site agc="USGS" cat="ST" lat="43.75527266" lng="-101.2279205" sna="BLACK PIPE CREEK NR BELVIDERE, SD" sno="06447230"/>
		<site agc="USGS" cat="ST" lat="46.7033333" lng="-101.2136111" sna="HEART RIVER AT STARK BRIDGE NR JUDSON, ND" sno="06348300"/>
		<site agc="USGS" cat="ST" lat="33.03843236" lng="-101.1976302" sna="DMF Brazos Rv at Justiceburg, TX" sno="08079600"/>
		<site agc="USGS" cat="ST" lat="47.05749409" lng="-101.1957001" sna="SQUARE BUTTE CREEK BELOW CENTER, ND" sno="06342260"/>
		<site agc="USGS" cat="ST" lat="47.28027778" lng="-101.1852778" sna="MISSOURI RIVER NEAR HENSLER, ND" sno="06340900"/>
		<site agc="USGS" cat="LK" lat="36.36144167" lng="-101.1640167" sna="Palo Duro Res nr Spearman, TX" sno="07233550"/>
		<site agc="USGS" cat="ST" lat="44.0672095" lng="-101.1608623" sna="BAD R NEAR MIDLAND,SD" sno="06441000"/>
		<site agc="USGS" cat="LK" lat="32.59316669" lng="-101.1381778" sna="Lk J. B. Thomas nr Vincent, TX" sno="08118000"/>
		<site agc="USGS" cat="ST" lat="37.9697442" lng="-101.1287794" sna="ARKANSAS R AT DEERFIELD, KS" sno="07138070"/>
		<site agc="USGS" cat="ST" lat="44.3447055" lng="-101.1281985" sna="PLUM CREEK NEAR HAYES, SD" sno="06441100"/>
		<site agc="USGS" cat="ST" lat="40.35166667" lng="-101.1236111" sna="Frenchman Creek at Palisade, Nebr." sno="06834000"/>
		<site agc="USGS" cat="ST-DCH" lat="37.9598611" lng="-101.1207222" sna="SOUTHSIDE DITCH RETURN NR DEERFIELD, KS" sno="07138064"/>
		<site agc="USGS" cat="ST" lat="31.8973574" lng="-101.105113" sna="N Concho Rv abv Sterling City, TX" sno="08133250"/>
		<site agc="USGS" cat="LK" lat="33.45786654" lng="-101.084028" sna="White Rv Res nr Spur, TX" sno="08080910"/>
		<site agc="USGS" cat="ST-DCH" lat="37.99807888" lng="-101.0607228" sna="FARMERS DITCH NR DEERFIELD, KS" sno="07138075"/>
		<site agc="USGS" cat="LK" lat="33.0628761" lng="-101.0476268" sna="Lk Alan Henry Res nr Justiceburg, TX" sno="08079700"/>
		<site agc="USGS" cat="ST" lat="47.2888822" lng="-101.0379239" sna="MISSOURI RIVER AT WASHBURN, ND" sno="06341000"/>
		<site agc="USGS" cat="ST" lat="32.1992913" lng="-101.0140029" sna="Beals Ck nr Westbrook, TX" sno="08123800"/>
	</sites>
	<colocated_sites>
		<site agc="TX003" cat="ST" lat="29.78075694" lng="-101.7559523" sna="TCEQQW Rio Grande at Foster Rh nr Langtry, TX" sno="08377200"/>
		<site agc="USGS" cat="ST" lat="29.78075694" lng="-101.7559523" sna="Rio Grande at Foster Rh nr Langtry, TX" sno="08377200"/>
	</colocated_sites>
	<sites>
		<site agc="USGS" cat="ST" lat="42.44906389" lng="-102.9989583" sna="NER9-0902" sno="422657102595601"/>
		<site agc="USGS" cat="ST" lat="29.1835386" lng="-102.9754409" sna="Rio Grande at Rio Grande Village, Big Bnd NP, TX" sno="08375300"/>
		<site agc="USGS" cat="ST" lat="36.92668707" lng="-102.9590954" sna="Cimarron River near Kenton, OK" sno="07154500"/>
		<site agc="USGS" cat="ST" lat="46.86556675" lng="-102.9485116" sna="HEART RIVER NR SOUTH HEART, ND" sno="06343000"/>
		<site agc="USGS" cat="LK" lat="38.06806298" lng="-102.9374229" sna="JOHN MARTIN RESERVOIR AT CADDOA, CO" sno="07130000"/>
		<site agc="USGS" cat="ST" lat="38.06639635" lng="-102.9324228" sna="ARKANSAS RIVER BELOW JOHN MARTIN RESERVOIR, CO." sno="07130500"/>
		<site agc="USGS" cat="ST" lat="43.72543145" lng="-102.9061231" sna="BATTLE CR BELOW HERMOSA,SD" sno="06406500"/>
		<site agc="USGS" cat="ST" lat="35.75125" lng="-102.8931667" sna="Cramer Ck at US Hwy 54 nr Dalhart, TX" sno="07227420"/>
		<site agc="USGS" cat="ST" lat="43.6724058" lng="-102.8921298" sna="CHEYENNE RIVER AT RED SHIRT, SD" sno="06403700"/>
		<site agc="USGS" cat="ST" lat="43.9074888" lng="-102.859065" sna="LINDSEY DRAW NEAR FARMINGDALE, SD" sno="06421800"/>
		<site agc="USGS" cat="ST" lat="43.94210239" lng="-102.8539247" sna="RAPID CR NEAR FARMINGDALE,SD" sno="06421500"/>
		<site agc="USGS" cat="ST" lat="49.02836427" lng="-102.8504554" sna="SHORT CREEK BL INTNL BDRY NR ROCHE PERCEE, SASK" sno="05113800"/>
		<site agc="USGS" cat="ST" lat="43.013036" lng="-102.8357327" sna="WHITE R NR NE-SD STATE LINE" sno="06445685"/>
		<site agc="USGS" cat="LK" lat="46.86973158" lng="-102.8274014" sna="E. A. PATTERSON LAKE NEAR DICKINSON, ND" sno="06343500"/>
		<site agc="USGS" cat="ST" lat="43.25484357" lng="-102.8273511" sna="WHITE R NEAR OGLALA SD" sno="06446000"/>
		<site agc="USGS" cat="LK" lat="48.990588" lng="-102.7857303" sna="EAST BRANCH SHORT CREEK RES NR COLUMBUS, ND" sno="05113750"/>
		<site agc="USGS" cat="ST" lat="47.2361259" lng="-102.7699074" sna="KNIFE RIVER AT MANNING, ND" sno="06339100"/>
		<site agc="USGS" cat="ST" lat="47.7872369" lng="-102.7685256" sna="BEAR DEN CREEK NR MANDAREE, ND" sno="06332515"/>
		<site agc="USGS" cat="ST" lat="43.14651127" lng="-102.6833116" sna="WHITE CLAY CR NEAR OGLALA SD" sno="06445980"/>
		<site agc="USGS" cat="ST" lat="43.8980449" lng="-102.6440611" sna="CHEYENNE RIVER NEAR SCENIC, SD" sno="06408650"/>
		<site agc="USGS" cat="ST" lat="45.6486883" lng="-102.6433259" sna="SOUTH FORK GRAND R NEAR CASH,SD" sno="06356500"/>
		<site agc="USGS" cat="ST" lat="38.10579167" lng="-102.6182056" sna="ARKANSAS RIVER AT LAMAR, CO" sno="07133000"/>
		<site agc="USGS" cat="ST" lat="44.369989" lng="-102.5665256" sna=" BELLE FOURCHE RIVER NEAR ELM SPRINGS,SD" sno="06438000"/>
		<site agc="USGS" cat="ST" lat="46.42667116" lng="-102.5518303" sna="CANNONBALL RIVER AT REGENT, ND" sno="06350000"/>
		<site agc="USGS" cat="ST" lat="47.64084318" lng="-102.5115733" sna="SQUAW CREEK AB MOUTH NR MANDAREE, ND" sno="06337480"/>
		<site agc="USGS" cat="ST" lat="47.60000966" lng="-102.5110168" sna="MOCCASIN CR AT MOUTH NR MANDAREE, ND" sno="06337470"/>
		<site agc="USGS" cat="ST" lat="44.24831768" lng="-102.5032217" sna="ELK CR NEAR ELM SPRINGS,SD" sno="06425500"/>
		<site agc="USGS" cat="ST" lat="38.11417565" lng="-102.4838023" sna="BIG SANDY CREEK NEAR LAMAR, CO." sno="07134100"/>
		<site agc="USGS" cat="ST" lat="46.15528136" lng="-102.4757133" sna="CEDAR CREEK NR HAYNES, ND" sno="06352000"/>
		<site agc="USGS" cat="ST" lat="44.75110037" lng="-102.4490547" sna="ELM CREEK NEAR RED OWL, SD" sno="06438800"/>
		<site agc="USGS" cat="ST" lat="31.11320329" lng="-102.4176419" sna="Pecos Rv nr Girvin, TX" sno="08446500"/>
		<site agc="USGS" cat="ST" lat="33.05933333" lng="-102.4153056" sna="Sulphur Spgs Draw nr Wellman, TX" sno="08123620"/>
		<site agc="USGS" cat="LK" lat="41.7499794" lng="-102.4088059" sna="ROUNDUP LAKE CRESCENT LK NATL WILDLIFE REFUGE" sno="414500102243001"/>
		<site agc="USGS" cat="ST" lat="44.08109849" lng="-102.4012746" sna=" CHEYENNE RIVER NEAR WASTA,SD" sno="06423500"/>
		<site agc="USGS" cat="LK" lat="41.7277574" lng="-102.4004722" sna="ISLAND LAKE CRESCENT LK NATL WILDLIFE REFUGE" sno="414340102240001"/>
		<site agc="USGS" cat="ST" lat="34.8129361" lng="-102.3898972" sna="Tierra Blanca Ck nr FM 1259 at Hereford, TX" sno="07295450"/>
		<site agc="USGS" cat="ST" lat="30.12851998" lng="-102.3848654" sna="Sanderson Ck at Sanderson, TX" sno="08376300"/>
		<site agc="USGS" cat="ST" lat="45.80222" lng="-102.3623795" sna="NORTH FORK GRAND R NEAR WHITE BUTTE,SD" sno="06355500"/>
		<site agc="USGS" cat="ST" lat="43.14351647" lng="-102.3583815" sna="WOUNDED KNEE CREEK AT WOUNDED KNEE, SD" sno="06446100"/>
		<site agc="USGS" cat="ST" lat="38.0955649" lng="-102.3107453" sna="ARKANSAS RIVER NEAR GRANADA, CO." sno="07134180"/>
		<site agc="USGS" cat="ST" lat="46.74555556" lng="-102.3083333" sna="HEART RIVER NR RICHARDTON, ND" sno="06345500"/>
		<site agc="USGS" cat="ST" lat="35.6750972" lng="-102.2807222" sna="E Fk Cheyenne Ck Trib nr Channing, TX" sno="07227460"/>
		<site agc="USGS" cat="ST" lat="40.97499276" lng="-102.2518517" sna="SOUTH PLATTE RIVER AT JULESBURG, CO" sno="06764000"/>
		<site agc="USGS" cat="ST" lat="45.7533289" lng="-102.2037669" sna="SHADEHILL RESERVOIR AT SHADEHILL SD" sno="06357000"/>
		<site agc="USGS" cat="ST" lat="34.84867146" lng="-102.1760295" sna="Tierra Blanca Ck abv Buffalo Lk nr Umbarger, TX" sno="07295500"/>
		<site agc="USGS" cat="ST" lat="45.19775826" lng="-102.1565472" sna="MOREAU R NEAR FAITH,SD" sno="06359500"/>
		<site agc="USGS" cat="ST" lat="43.9605172" lng="-102.1386008" sna="UNNAMED TRIB COTTONWOOD CREEK NEAR QUINN, SD" sno="06440300"/>
		<site agc="USGS" cat="ST" lat="38.05702778" lng="-102.1384722" sna="WILD HORSE CREEK ABOVE HOLLY, CO" sno="07134990"/>
		<site agc="USGS" cat="ST" lat="47.29666667" lng="-102.0938889" sna="GOODMAN CREEK NEAR GOLDEN VALLEY, ND" sno="06339960"/>
		<site agc="USGS" cat="ST" lat="46.6569506" lng="-102.0793279" sna="HEART R AB LAKE TSCHIDA NR GLEN ULLIN, ND" sno="06345780"/>
		<site agc="USGS" cat="ST" lat="47.154453" lng="-102.059892" sna="KNIFE RIVER NR GOLDEN VALLEY, ND" sno="06339500"/>
		<site agc="USGS" cat="ST" lat="40.06943516" lng="-102.0512979" sna="North Fork Republican River at Colorado-Nebraska" sno="06823000"/>
		<site agc="USGS" cat="ST-DCH" lat="38.03834599" lng="-102.0390714" sna="FRONTIER DITCH NR COOLIDGE, KS" sno="07137000"/>
		<site agc="USGS" cat="ST" lat="45.4434802" lng="-102.0163724" sna="THUNDER BUTTE CR TRIB NEAR GLAD VALLEY SD" sno="06359800"/>
		<site agc="USGS" cat="ST" lat="39.67193827" lng="-102.0135164" sna="SF REPUBLICAN R NR CO-KS ST LINE, KS" sno="06827000"/>
		<site agc="USGS" cat="ST" lat="38.0275129" lng="-102.0115706" sna="ARKANSAS R NR COOLIDGE, KS" sno="07137500"/>
		<site agc="USGS" cat="ST" lat="44.5118611" lng="-102.0027389" sna="CR-B-2" sno="443043102001000"/>
		<site agc="USGS" cat="ST" lat="44.51223889" lng="-102.0027389" sna="CR-B-1" sno="443044102001000"/>
	</sites>
	<sites>
		<site agc="USGS" cat="ST" lat="47.16307028" lng="-103.9927057" sna="BEAVER CREEK NR TROTTERS, ND" sno="06336600"/>
		<site agc="USGS" cat="ST" lat="47.98555556" lng="-103.9852778" sna="MISSOURI R NO. 5A AT BUFORD, ND" sno="06329640"/>
		<site agc="USGS" cat="ST" lat="32.18853056" lng="-103.9793861" sna="PECOS RIVER AT PIERCE CANYON CROSSING, NM" sno="08407000"/>
		<site agc="USGS" cat="ST" lat="45.5481343" lng="-103.9712386" sna="LITTLE MISSOURI R AT CAMP CROOK,SD" sno="06334500"/>
		<site agc="USGS" cat="ST" lat="34.79527778" lng="-103.9686111" sna="ALAMOSA CREEK TRIBUTARY NEAR JORDAN, NM" sno="08385530"/>
		<site agc="USGS" cat="ST" lat="38.1085" lng="-103.9676111" sna="APISHAPA RIVER NEAR FOWLER, CO" sno="07119500"/>
		<site agc="USGS" cat="ST" lat="47.86196356" lng="-103.9668743" sna="YELLOWSTONE R NO. 2 NR CARTWRIGHT, ND" sno="06329610"/>
		<site agc="USGS" cat="ST" lat="47.92057545" lng="-103.9660413" sna="YELLOWSTONE R NO. 3 NR BUFORD, ND" sno="06329620"/>
		<site agc="USGS" cat="ST" lat="37.59902778" lng="-103.9645556" sna="WEST BEAR SPRINGS ARROYO AT BOUNDARY AT PCMS, CO" sno="373556103575201"/>
		<site agc="USGS" cat="ST" lat="36.04805556" lng="-103.9636111" sna="CARRIZO CREEK NEAR ROY, NM" sno="07226300"/>
		<site agc="USGS" cat="ST" lat="37.34557255" lng="-103.9580186" sna="VAN BREMER ARROYO NEAR MODEL, CO" sno="07126200"/>
		<site agc="USGS" cat="ST" lat="43.55136397" lng="-103.9399263" sna="PASS CREEK NEAR DEWEY, SD" sno="06394450"/>
		<site agc="USGS" cat="ST" lat="44.3496865" lng="-103.9359118" sna="LITTLE SPEARFISH CREEK NEAR LEAD, SD" sno="06430850"/>
		<site agc="USGS" cat="ST" lat="37.42418269" lng="-103.9202382" sna="TAYLOR ARROYO BL ROCK CROSSING, NR THATCHER, CO." sno="07126325"/>
		<site agc="USGS" cat="ST" lat="46.29777778" lng="-103.9175" sna="LITTLE MISSOURI RIVER AT MARMARTH, ND" sno="06335500"/>
		<site agc="USGS" cat="ST" lat="38.12583934" lng="-103.9119006" sna="ARKANSAS RIVER AT CATLIN DAM, NEAR FOWLER, CO." sno="07119700"/>
		<site agc="USGS" cat="LK" lat="31.901237" lng="-103.9101974" sna="Red Bluff Res nr Orla, TX" sno="08410000"/>
		<site agc="USGS" cat="ST" lat="47.9558333" lng="-103.9086111" sna="MISSOURI R NO. 6 NEAR BUFORD,ND" sno="06329650"/>
		<site agc="USGS" cat="ST" lat="37.3564059" lng="-103.9002383" sna="PURGATOIRE RIVER NEAR THATCHER, CO." sno="07126300"/>
		<site agc="USGS" cat="ST" lat="44.40165056" lng="-103.8949267" sna="SPEARFISH CREEK ABOVE SPEARFISH, SD" sno="06430900"/>
		<site agc="USGS" cat="ST" lat="44.32749778" lng="-103.894532" sna="ANNIE CREEK NEAR LEAD, SD" sno="06430800"/>
		<site agc="USGS" cat="ST" lat="44.40077556" lng="-103.8939183" sna="CLEOPATRA CREEK NEAR SPEARFISH, SD" sno="06430898"/>
		<site agc="USGS" cat="ST" lat="41.22777778" lng="-103.8930556" sna="Lodgepole Creek at Bushnell, Nebr." sno="06762500"/>
		<site agc="USGS" cat="ST" lat="44.29921736" lng="-103.8681641" sna="SPEARFISH CREEK NEAR LEAD, SD" sno="06430770"/>
		<site agc="USGS" cat="ST" lat="44.48248388" lng="-103.861592" sna="SPEARFISH CR AT SPEARFISH,SD" sno="06431500"/>
		<site agc="USGS" cat="ST" lat="44.13387149" lng="-103.8615912" sna="RHOADS FORK NEAR ROCHFORD,SD" sno="06408700"/>
		<site agc="USGS" cat="ST" lat="44.66720665" lng="-103.8393696" sna="REDWATER RIVER ABOVE BELLE FOURCHE,SD" sno="06433000"/>
		<site agc="USGS" cat="ST" lat="31.87262648" lng="-103.8315824" sna="Pecos Rv nr Orla, TX" sno="08412500"/>
		<site agc="USGS" cat="ST" lat="44.01359238" lng="-103.8304784" sna="CASTLE CR ABOVE DEERFIELD RES NEAR HILL CITY,SD" sno="06409000"/>
		<site agc="USGS" cat="ST" lat="37.49279316" lng="-103.8280114" sna="LOCKWOOD CANYON CREEK NEAR THATCHER, CO" sno="07126390"/>
		<site agc="USGS" cat="ST" lat="43.3055286" lng="-103.8210312" sna="CHEYENNE R AT EDGEMONT,SD" sno="06395000"/>
		<site agc="USGS" cat="ST" lat="40.26840278" lng="-103.8011917" sna="SOUTH PLATTE RIVER AT FORT MORGAN, CO" sno="06759500"/>
		<site agc="USGS" cat="ST" lat="44.3910952" lng="-103.7999223" sna="FALSE BOTTOM CREEK NR CENTRAL CITY" sno="06432172"/>
		<site agc="USGS" cat="ST" lat="47.85085328" lng="-103.7940907" sna="CHARBONNEAU CREEK NR CHARBONNEAU, ND" sno="06329597"/>
		<site agc="USGS" cat="ST" lat="35.14194444" lng="-103.7927778" sna="BLUEWATER CREEK NR TUCUMCARI, NM" sno="07225300"/>
		<site agc="USGS" cat="ST" lat="42.4236111" lng="-103.7922222" sna="Niobrara River at Agate, Nebr." sno="06454100"/>
		<site agc="USGS" cat="ST" lat="44.0280373" lng="-103.7863098" sna="DEERFIELD RESERVOIR NEAR HILL CITY SD" sno="06409500"/>
		<site agc="USGS" cat="ST" lat="44.02914848" lng="-103.7818652" sna="CASTLE CR BELOW DEERFIELD DAM SD" sno="06410000"/>
		<site agc="USGS" cat="ST" lat="44.34331769" lng="-103.7663095" sna="WHITETAIL CREEK AT LEAD, SD" sno="06436156"/>
		<site agc="USGS" cat="ST" lat="44.36859538" lng="-103.765754" sna="DEADWOOD CREEK AT CENTRAL CITY, SD" sno="06436165"/>
		<site agc="USGS" cat="ST" lat="34.8358333" lng="-103.7575" sna="PLAZA LARGA CR TRIB NR RAGLAND, NM" sno="07227050"/>
		<site agc="USGS" cat="ST" lat="44.6908178" lng="-103.7376985" sna="BELLE FOURCHE R NEAR FRUITDALE,SD" sno="06436000"/>
		<site agc="USGS" cat="ST" lat="47.79335226" lng="-103.7374219" sna="UNNAMED TRIB @ JACKSON WELL NR CHARBONNEAU, ND" sno="06329595"/>
		<site agc="USGS" cat="ST" lat="44.70092898" lng="-103.7327817" sna="INLET CANAL ABOVE BELLE FOURCHE RESERVOIR,SD" sno="06434505"/>
		<site agc="USGS" cat="ST" lat="37.51529314" lng="-103.7255071" sna="RED ROCK CANYON CREEK AT MOUTH NR THATCHER, CO." sno="07126415"/>
		<site agc="USGS" cat="ST" lat="48.1080792" lng="-103.7146446" sna="MISSOURI RIVER NR WILLISTON, ND" sno="06330000"/>
		<site agc="USGS" cat="ST" lat="38.06528559" lng="-103.6860593" sna="ARKANSAS RIVER NEAR ROCKY FORD, CO." sno="07120500"/>
		<site agc="USGS" cat="ST" lat="35.9797222" lng="-103.6855556" sna="BUEYEROS CREEK AT BUEYEROS, NM" sno="07226200"/>
		<site agc="USGS" cat="ST" lat="44.73665157" lng="-103.6746411" sna="BELLE FOURCHE RESERVOIR NEAR BELLE FOURCHE SD" sno="06435000"/>
		<site agc="USGS" cat="ST" lat="38.0030644" lng="-103.6560588" sna="TIMPAS CREEK AT MOUTH NEAR SWINK, CO." sno="07121500"/>
		<site agc="USGS" cat="ST" lat="43.7663714" lng="-103.6560288" sna="RUBY CREEK NR CUSTER, SD" sno="06402940"/>
		<site agc="USGS" cat="ST" lat="37.58918109" lng="-103.6482815" sna="BENT CANYON CREEK AT MOUTH NEAR TIMPAS, CO" sno="07126480"/>
		<site agc="USGS" cat="ST" lat="43.76026046" lng="-103.648251" sna="FRENCH CREEK BLW RUBY CREEK NR CUSTER, SD" sno="06402950"/>
		<site agc="USGS" cat="ST" lat="44.3355403" lng="-103.6354716" sna="BEAR BUTTE CREEK NEAR DEADWOOD, SD" sno="06437020"/>
		<site agc="USGS" cat="ST" lat="44.4422065" lng="-103.6293606" sna="WHITEWOOD CR ABOVE WHITEWOOD,SD" sno="06436180"/>
		<site agc="USGS" cat="ST" lat="43.8662367" lng="-103.6240667" sna="SPRING CR AT OREVILLE, NR HILL CITY,SD" sno="06406700"/>
		<site agc="USGS" cat="ST" lat="43.9097067" lng="-103.6124162" sna="RENO GULCH NEAR HILL CITY,SD" sno="06406760"/>
		<site agc="USGS" cat="ST" lat="48.13696847" lng="-103.6049186" sna="MISSOURI R NO. 9 AT WILLISTON, ND" sno="06330110"/>
		<site agc="USGS" cat="ST" lat="44.2947073" lng="-103.5968592" sna="ELK CR NEAR ROUBAIX,SD" sno="06424000"/>
		<site agc="USGS" cat="ST" lat="37.6183474" lng="-103.593557" sna="PURGATOIRE RIVER AT ROCK CROSSING NR TIMPAS, CO." sno="07126485"/>
		<site agc="USGS" cat="ST" lat="43.76942859" lng="-103.5935278" sna="LAUGHING WATER CR AT CUSTER, SD" sno="06402970"/>
		<site agc="USGS" cat="ST" lat="43.2399736" lng="-103.5882519" sna="HAT CR NEAR EDGEMONT,SD" sno="06400000"/>
		<site agc="USGS" cat="ST" lat="44.3963735" lng="-103.5826922" sna="BEAR BUTTE CR NEAR GALENA,SD" sno="06437200"/>
		<site agc="USGS" cat="ST" lat="43.8694294" lng="-103.5824158" sna="SUNDAY GULCH BL JOHNSON CANYON NR HILL CITY,SD" sno="06406740"/>
		<site agc="USGS" cat="ST" lat="44.08470785" lng="-103.5804702" sna="RAPID CR ABOVE PACTOLA RES AT SILVER CITY,  SD" sno="06410500"/>
		<site agc="USGS" cat="ST" lat="48.2844683" lng="-103.5729718" sna="LITTLE MUDDY RIVER BL COW CREEK NR WILLISTON, ND" sno="06331000"/>
		<site agc="USGS" cat="ST" lat="44.54175655" lng="-103.5719867" sna="WHITEWOOD CREEK NEAR WHITEWOOD,SD" sno="06436190"/>
		<site agc="USGS" cat="ST" lat="43.3366426" lng="-103.5535292" sna="CASCADE SPRINGS ABV ALABAUGH CYN, NR HOT SPRINGS" sno="432012103331100"/>
		<site agc="USGS" cat="ST" lat="43.89554176" lng="-103.539637" sna="PRECIP AT WILLOW CR HORSE CAMP NR HILL CITY SD" sno="435344103322100"/>
		<site agc="USGS" cat="ST" lat="43.76943006" lng="-103.5365825" sna="FRENCH CREEK ABOVE STOCKADE LAKE NEAR CUSTER, SD" sno="06402995"/>
		<site agc="USGS" cat="ST" lat="46.91945839" lng="-103.5282426" sna="LITTLE MISSOURI RIVER AT MEDORA, ND" sno="06336000"/>
		<site agc="USGS" cat="ST" lat="35.43852778" lng="-103.5257944" sna="UTE CREEK NEAR LOGAN, NM" sno="07226500"/>
		<site agc="USGS" cat="ST" lat="29.13798" lng="-103.5249033" sna="Rio Grande nr Castolon, TX" sno="08374550"/>
		<site agc="USGS" cat="ST" lat="44.0402651" lng="-103.4990792" sna="PRECIP AT UPPER PRAIRIE CR NR PACTOLA DAM, SD" sno="440225103295500"/>
		<site agc="USGS" cat="LK" lat="43.4552574" lng="-103.4890843" sna="COLDBROOK RESERVOIR AT HOT SPRINGS, S.D." sno="06401950"/>
		<site agc="USGS" cat="ST" lat="44.07220936" lng="-103.4885231" sna="PACTOLA RESERVOIR NEAR SILVER CITY SD" sno="06411000"/>
		<site agc="USGS" cat="ST" lat="43.89071944" lng="-103.4850056" sna="PINE CREEK ABOVE HORSETHIEF LAKE NR HILL CITY, SD" sno="435327103290600"/>
		<site agc="USGS" cat="ST" lat="44.07665378" lng="-103.482134" sna="RAPID CR BELOW PACTOLA DAM,SD" sno="06411500"/>
		<site agc="USGS" cat="ST" lat="44.617485" lng="-103.4807452" sna="WHITEWOOD CR ABOVE VALE,SD" sno="06436198"/>
		<site agc="USGS" cat="ST" lat="43.58137177" lng="-103.4765835" sna="BEAVER CREEK NEAR PRINGLE, SD" sno="06402430"/>
		<site agc="USGS" cat="ST" lat="43.43053476" lng="-103.4763069" sna="FALL R AT HOT SPRINGS,SD" sno="06402000"/>
		<site agc="USGS" cat="ST" lat="31.43652327" lng="-103.467395" sna="Pecos Rv at Pecos, TX" sno="08420500"/>
		<site agc="USGS" cat="ST" lat="43.905032" lng="-103.4638602" sna="BATTLE CR ABOVE KEYSTONE,SD" sno="06403810"/>
		<site agc="USGS" cat="ST" lat="43.87054307" lng="-103.4601912" sna="STARLING GULCH AT MT. RUSHMORE, SD" sno="435214103273500"/>
		<site agc="USGS" cat="ST" lat="30.95792694" lng="-103.459619" sna="Barrilla Draw nr Saragosa, TX" sno="08433000"/>
		<site agc="USGS" cat="ST" lat="44.1443339" lng="-103.4545385" sna="BOXELDER CR NEAR NEMO,SD" sno="06422500"/>
		<site agc="USGS" cat="ST" lat="43.8833333" lng="-103.4522222" sna="W.FK. LAFFERTY GULCH CR ABV S. WELL @MT. RUSHMORE" sno="435300103270800"/>
		<site agc="USGS" cat="ST" lat="43.88054318" lng="-103.4515798" sna="LAFFERTY GULCH BL WATER TRMT PL AT MT.RUSHMORE, SD" sno="435250103270400"/>
		<site agc="USGS" cat="ST" lat="43.88387655" lng="-103.4485241" sna="LAFFERTY GULCH AT MT.RUSHMORE, SD" sno="435302103265300"/>
		<site agc="USGS" cat="LK" lat="35.3429861" lng="-103.4442944" sna="UTE RESERVOIR NEAR LOGAN, NM" sno="07226800"/>
		<site agc="USGS" cat="ST" lat="44.08198719" lng="-103.4429383" sna="RAPID CR ABV JOHNSON SIDING BLW PACTOLA DAM,SD" sno="06411900"/>
		<site agc="USGS" cat="ST" lat="43.87609885" lng="-103.4410241" sna="UNNAMED TRIB AB GRIZZLY BEAR CR AT MT.RUSHMORE, SD" sno="435234103262600"/>
		<site agc="USGS" cat="ST" lat="43.34303306" lng="-103.4382523" sna="ANGOSTURA RESERVOIR NEAR HOT SPRINGS SD" sno="06401000"/>
		<site agc="USGS" cat="ST" lat="43.8780433" lng="-103.4376907" sna="GRIZZLY BEAR CREEK NEAR KEYSTONE,SD" sno="06403850"/>
		<site agc="USGS" cat="ST" lat="43.34497757" lng="-103.4371412" sna="CHEYENNE R BELOW ANGOSTURA DAM,SD" sno="06401500"/>
		<site agc="USGS" cat="LK" lat="43.34358866" lng="-103.4357523" sna="CANAL OUTLET AT ANGOSTURA RES NR HOT SPRINGS, SD" sno="06401010"/>
		<site agc="USGS" cat="ST" lat="44.02990427" lng="-103.4354937" sna="VICTORIA CR ABOVE VICTORIA DAM NR RAPID CITY,SD" sno="06412220"/>
		<site agc="USGS" cat="ST" lat="43.8020628" lng="-103.4343143" sna="GRACE COOLIDGE CREEK NEAR HAYWARD, SD" sno="06404800"/>
		<site agc="USGS" cat="ST" lat="44.05498747" lng="-103.417132" sna="RAPID CR AT BIG BEND NR RAPID CITY,SD" sno="06412000"/>
		<site agc="USGS" cat="ST" lat="43.84564444" lng="-103.4028722" sna="IRON CREEK ABOVE LAKOTA LAKE NR KEYSTONE, SD" sno="435044103241000"/>
		<site agc="USGS" cat="ST" lat="35.35" lng="-103.3997222" sna="CANADIAN RIVER AT LOGAN, NM" sno="07227000"/>
		<site agc="USGS" cat="ST" lat="35.3443861" lng="-103.3896056" sna="REVUELTO CREEK NEAR LOGAN, NM" sno="07227100"/>
		<site agc="USGS" cat="ST" lat="44.01804337" lng="-103.385742" sna="VICTORIA CR BELOW VICTORIA DAM NR RAPID CITY,SD" sno="06412250"/>
		<site agc="USGS" cat="ST" lat="43.7172105" lng="-103.3679713" sna="FRENCH CR ABOVE FAIRBURN SD" sno="06403300"/>
		<site agc="USGS" cat="ST" lat="44.65265259" lng="-103.366697" sna="HORSE CR ABOVE VALE,SD" sno="06436760"/>
		<site agc="USGS" cat="ST" lat="44.08109855" lng="-103.3654636" sna="WILD IRISHMAN GULCH NEAR RAPID CITY,SD" sno="06412580"/>
		<site agc="USGS" cat="ST" lat="43.76110028" lng="-103.3640816" sna="GRACE COOLIDGE CR NR GAME LODGE NR CUSTER,SD" sno="06404998"/>
		<site agc="USGS" cat="ST" lat="49.00031148" lng="-103.3526894" sna="LONG CR AT WEST CROSSING OF INTNL BNDARY, SASK" sno="05113360"/>
		<site agc="USGS" cat="ST" lat="44.0465988" lng="-103.3515742" sna="RAPID CREEK AB VICTORIA CR NR RAPID CITY, SD" sno="06412200"/>
		<site agc="USGS" cat="ST" lat="43.79193375" lng="-103.3474139" sna="BEAR GULCH NEAR HAYWARD, SD" sno="06405800"/>
		<site agc="USGS" cat="ST" lat="43.97871038" lng="-103.3460469" sna="SPRING CR NEAR KEYSTONE,SD" sno="06407500"/>
		<site agc="USGS" cat="ST" lat="43.87164727" lng="-103.3363029" sna="BATTLE CR NEAR KEYSTONE,SD" sno="06404000"/>
		<site agc="USGS" cat="ST" lat="43.9116553" lng="-103.3357432" sna="PRECIP AT DEADMAN GULCH NR HAYWARD, SD" sno="435442103200700"/>
		<site agc="USGS" cat="ST" lat="44.09276526" lng="-103.3274068" sna="SOUTH CANYON NEAR RAPID CITY,SD" sno="06413620"/>
		<site agc="USGS" cat="ST" lat="44.05276555" lng="-103.3118507" sna="RAPID CR ABOVE CANYON LAKE NEAR RAPID CITY,SD" sno="06412500"/>
		<site agc="USGS" cat="ST" lat="43.4666495" lng="-103.3060308" sna="BEAVER CR NEAR BUFFALO GAP,SD" sno="06402500"/>
		<site agc="USGS" cat="ST" lat="44.131654" lng="-103.2987949" sna="BOXELDER CR NEAR RAPID CITY,SD" sno="06423010"/>
		<site agc="USGS" cat="ST" lat="44.05887667" lng="-103.2974058" sna="CLEGHORN SPRINGS AT RAPID CITY, SD" sno="06412810"/>
		<site agc="USGS" cat="ST" lat="44.0591544" lng="-103.2974058" sna="RAPID CREEK BLW CLEGHORN SPGS AT RAPID CITY SD" sno="06412900"/>
		<site agc="USGS" cat="ST" lat="44.4808495" lng="-103.2759863" sna="BEAR BUTTE CR NEAR STURGIS SD" sno="06437500"/>
		<site agc="USGS" cat="ST" lat="44.07521" lng="-103.2566267" sna="RAPID CREEK AT WTP AT RAPID CITY, SD" sno="06413720"/>
		<site agc="USGS" cat="ST" lat="47.5902932" lng="-103.2518572" sna="LITTLE MISSOURI RIVER NR WATFORD CITY, ND" sno="06337000"/>
		<site agc="USGS" cat="ST" lat="44.08551554" lng="-103.241843" sna="RAPID CR AT RAPID CITY,SD" sno="06414000"/>
		<site agc="USGS" cat="ST" lat="43.18803166" lng="-103.2265866" sna="HORSEHEAD CR AT OELRICHS,SD" sno="06400875"/>
		<site agc="USGS" cat="ST" lat="38.0808399" lng="-103.2196523" sna="ARKANSAS RIVER AT LAS ANIMAS, CO." sno="07124000"/>
		<site agc="USGS" cat="ST" lat="36.0708333" lng="-103.2033333" sna="TRAMPEROS CREEK NEAR STEAD, NM" sno="07227200"/>
		<site agc="USGS" cat="ST" lat="38.0342222" lng="-103.2014167" sna="PURGATOIRE RIVER NEAR LAS ANIMAS, CO" sno="07128500"/>
		<site agc="USGS" cat="ST" lat="34.5308333" lng="-103.1997222" sna="RUNNING WATER DRAW NEAR CLOVIS, NM" sno="08080600"/>
		<site agc="USGS" cat="ST" lat="43.82804586" lng="-103.1960211" sna="BATTLE CR AT HERMOSA,SD" sno="06406000"/>
		<site agc="USGS" cat="ST" lat="36.3422222" lng="-103.1841667" sna="SAND DRAW NEAR CLAYTON, NM" sno="07227300"/>
		<site agc="USGS" cat="ST" lat="44.06726568" lng="-103.18093" sna="RAPID CR BELOW HAWTHORN DITCH AT RAPID CITY,SD" sno="06416000"/>
		<site agc="USGS" cat="ST" lat="44.2402646" lng="-103.1512907" sna="ELK CR NR RAPID CITY,SD" sno="06425100"/>
		<site agc="USGS" cat="ST" lat="44.5130418" lng="-103.1368464" sna="BELLE FOURCHE R NEAR STURGIS,SD" sno="06437000"/>
		<site agc="USGS" cat="ST" lat="44.50373056" lng="-103.1364861" sna="BF-V-1" sno="443013103081100"/>
		<site agc="USGS" cat="ST" lat="44.51425556" lng="-103.1319" sna="BF-V-2" sno="443051103075500"/>
		<site agc="USGS" cat="ST" lat="35.05895" lng="-103.1021694" sna="ARROYO DEL PUERTO NR ENDEE, NM" sno="07227150"/>
		<site agc="USGS" cat="ST" lat="44.0236549" lng="-103.095844" sna="RAPID CR BL SEWAGE TREATMENT PL NR RAPID CITY, SD" sno="06418900"/>
		<site agc="USGS" cat="ST" lat="48.9811417" lng="-103.0765734" sna="LONG CREEK NR NOONAN, ND" sno="05113600"/>
		<site agc="USGS" cat="ST" lat="43.5019636" lng="-103.0744103" sna="CHEYENNE R NEAR BUFFALO GAP SD" sno="06402600"/>
		<site agc="USGS" cat="ST" lat="44.7830441" lng="-103.0623992" sna="ELM CREEK NEAR FAIRPOINT, SD" sno="06437650"/>
		<site agc="USGS" cat="ST" lat="47.02779158" lng="-103.0532355" sna="GREEN RIVER NR NEW HRADEC, ND" sno="06344600"/>
		<site agc="USGS" cat="ST" lat="36.8833333" lng="-103.0183333" sna="CARRIZOZO CREEK NEAR KENTON, OK" sno="07154400"/>
		<site agc="USGS" cat="ST" lat="31.3668055" lng="-103.0059908" sna="Pecos Rv at RR 1776 nr Grandfalls, TX" sno="08437710"/>
	</sites>
	<sites>
		<site agc="USGS" cat="ST" lat="39.74248685" lng="-104.9999817" sna="CHERRY CREEK AT DENVER, CO." sno="06713500"/>
		<site agc="USGS" cat="ST" lat="38.4891658" lng="-104.9974832" sna="BEAVER CREEK ABOVE HIGHWAY 115 NEAR PENROSE, CO" sno="07099060"/>
		<site agc="USGS" cat="ST" lat="40.3974831" lng="-104.9927548" sna="BIG THOMPSON RIVER AT I-25, NEAR LOVELAND, CO." sno="06741530"/>
		<site agc="USGS" cat="ST" lat="39.43832246" lng="-104.9830387" sna="PLUM CREEK NEAR SEDALIA, CO." sno="06709000"/>
		<site agc="USGS" cat="ST" lat="39.6491542" lng="-104.9788705" sna="LITTLE DRY CREEK ABOVE ENGLEWOOD, CO" sno="06711555"/>
		<site agc="USGS" cat="ST" lat="36.5198333" lng="-104.9786111" sna="CIMARRON RIVER NEAR CIMARRON, NM" sno="07207000"/>
		<site agc="USGS" cat="ST" lat="39.6717222" lng="-104.9770278" sna="HARVARD GULCH AT HARVARD PARK AT DENVER, CO" sno="06711575"/>
		<site agc="USGS" cat="ST" lat="38.8970833" lng="-104.9717778" sna="FOUNTAIN CREEK AT CASCADE, CO" sno="07100300"/>
		<site agc="USGS" cat="ST" lat="36.37234444" lng="-104.9692889" sna="RAYADO CREEK NEAR CIMARRON, NM" sno="07208500"/>
		<site agc="USGS" cat="ST" lat="39.8283194" lng="-104.9588684" sna="CLEAR CREEK AT MOUTH NEAR DERBY, CO" sno="06720000"/>
		<site agc="USGS" cat="ST" lat="39.81220846" lng="-104.9583129" sna="SOUTH PLATTE R AT 64TH AVE. COMMERCE CITY, CO." sno="06714215"/>
		<site agc="USGS" cat="ST" lat="38.97499176" lng="-104.9555374" sna="WEST MONUMENT CREEK BELOW RAMPART RESERVOIR, CO" sno="07103797"/>
		<site agc="USGS" cat="ST" lat="39.2594722" lng="-104.9519028" sna="WEST PLUM CREEK NEAR PERRY PARK, CO" sno="06708600"/>
		<site agc="USGS" cat="ST" lat="39.8109722" lng="-104.9515833" sna="SAND CREEK AT MOUTH NR COMMERCE CITY,CO" sno="394839104570300"/>
		<site agc="USGS" cat="ST" lat="39.81025" lng="-104.9503333" sna="SAND CRK ABV BURLINGTON DITCH NR COMMERCE CITY, CO" sno="06714360"/>
		<site agc="USGS" cat="ST" lat="42.4569134" lng="-104.9477477" sna="NORTH PLATTE RIVER BELOW GLENDO RESERVOIR, WY" sno="06652800"/>
		<site agc="USGS" cat="ST" lat="36.57369444" lng="-104.9468056" sna="PONIL CREEK NEAR CIMARRON, NM" sno="07207500"/>
		<site agc="USGS" cat="ST" lat="39.66920278" lng="-104.9425083" sna="HARVARD GULCH AT COLORADO BLVD. AT DENVER, CO" sno="06711570"/>
		<site agc="USGS" cat="ST" lat="44.32192645" lng="-104.9405313" sna="BELLE FOURCHE RIVER BELOW MOORCROFT, WY" sno="06426500"/>
		<site agc="USGS" cat="ST" lat="38.8881111" lng="-104.9356944" sna="WALDO CANYON ABV MOUTH NEAR MANITOU SPRINGS, CO" sno="07100750"/>
		<site agc="USGS" cat="ST" lat="39.5633216" lng="-104.927758" sna="BIG DRY CREEK BELOW C-470 AT HIGHLANDS RANCH, CO" sno="06710150"/>
		<site agc="USGS" cat="ST" lat="38.4997222" lng="-104.9133333" sna="RED CREEK BELOW SULLIVAN PARK AT FORT CARSON, CO" sno="07099080"/>
		<site agc="USGS" cat="ST" lat="39.5937361" lng="-104.9065" sna="LITTLE DRY CREEK NR ARAPAHOE RD AT CENTENNIAL, CO" sno="06711515"/>
		<site agc="USGS" cat="ST" lat="39.423" lng="-104.9046111" sna="EAST PLUM CR ABV HASKINS GULCH NR CASTLE ROCK, CO" sno="06708800"/>
		<site agc="USGS" cat="ST" lat="38.90755278" lng="-104.9037278" sna="CAMP CREEK ABOVE GLEN EYRIE NEAR COLO SPRINGS, CO" sno="07103702"/>
		<site agc="USGS" cat="ST" lat="38.97054766" lng="-104.902758" sna="WEST MONUMENT CREEK AT U.S. AIR FORCE ACADEMY, CO" sno="07103800"/>
		<site agc="USGS" cat="ST" lat="35.1819611" lng="-104.9002667" sna="GALLINAS R NR COLONIAS, NM" sno="08382500"/>
		<site agc="USGS" cat="ST" lat="38.82249078" lng="-104.888586" sna="BEAR CREEK NEAR COLORADO SPRINGS, CO" sno="07105000"/>
		<site agc="USGS" cat="ST" lat="35.8261111" lng="-104.8880556" sna="DOG CREEK NEAR SHOEMAKER, NM" sno="07220900"/>
		<site agc="USGS" cat="ST-DCH" lat="38.61027298" lng="-104.8874767" sna="STROBEL DITCH FROM TURKEY CR AT FT. CARSON, CO" sno="383637104531301"/>
		<site agc="USGS" cat="ST" lat="39.0875" lng="-104.8791667" sna="MONUMENT CREEK BELOW MONUMENT LAKE NR MONUMENT, CO" sno="07103755"/>
		<site agc="USGS" cat="ST" lat="38.85471357" lng="-104.8780314" sna="FOUNTAIN CREEK NEAR COLORADO SPRINGS, CO." sno="07103700"/>
		<site agc="USGS" cat="ST" lat="38.87693609" lng="-104.8727543" sna="CAMP CREEK AT GARDEN OF THE GODS, CO" sno="07103703"/>
		<site agc="USGS" cat="ST-DCH" lat="38.6052735" lng="-104.8683099" sna="LYTLE DITCH AT FT. CARSON, CO" sno="383619104520401"/>
		<site agc="USGS" cat="ST" lat="40.3350472" lng="-104.8678028" sna="LITTLE THOMPSON RIV AT CO HWY 257 AT MILLIKEN, CO" sno="06743470"/>
		<site agc="USGS" cat="ST" lat="38.79054685" lng="-104.8641404" sna="CHEYENNE CREEK AT EVANS AVE AT COLORADO SPRINGS,CO" sno="07105490"/>
		<site agc="USGS" cat="ST" lat="33.17638889" lng="-104.8588889" sna="TWIN BUTTES CANYON TRIB NR ROSWELL, NM" sno="08394300"/>
		<site agc="USGS" cat="ST" lat="33.34916667" lng="-104.8516667" sna="RIO HONDO AT DIAMOND A RANCH NR ROSWELL, NM" sno="08390500"/>
		<site agc="USGS" cat="ST-DCH" lat="38.67971594" lng="-104.8513632" sna="RIPLEY DITCH FROM L. FOUNTAIN CR AT FT. CARSON, CO" sno="384047104510301"/>
		<site agc="USGS" cat="ST" lat="38.6799722" lng="-104.8512444" sna="LITTLE FOUNTAIN CR ABV HWY 115 AT FORT CARSON, CO" sno="384048104510401"/>
		<site agc="USGS" cat="ST-DCH" lat="38.6799938" lng="-104.8480298" sna="WOMACK DITCH FROM L. FOUNTAIN CR NR FT. CARSON, CO" sno="384048104504901"/>
		<site agc="USGS" cat="ST" lat="38.707493" lng="-104.8466403" sna="ROCK CREEK ABOVE FORT CARSON RESERVATION, CO" sno="07105945"/>
		<site agc="USGS" cat="ST" lat="39.03102778" lng="-104.8466111" sna="MONUMENT C AB N.GATE BLVD AT USAF ACADEMY, CO." sno="07103780"/>
		<site agc="USGS" cat="ST" lat="38.81916667" lng="-104.8455556" sna="BEAR CR ABOVE 8TH STREET AT COLORADO SPRINGS, CO" sno="384909104504401"/>
		<site agc="USGS" cat="LK" lat="38.2983358" lng="-104.844981" sna="PUEBLO RESERVOIR SITE 2B" sno="381754104504000"/>
		<site agc="USGS" cat="ST-DCH" lat="38.70582646" lng="-104.8446958" sna="GALE DITCH FROM ROCK CR NR FORT CARSON, CO" sno="384220104503701"/>
		<site agc="USGS" cat="ST" lat="38.82943667" lng="-104.8396969" sna="FOUNTAIN CREEK BL 8TH ST., AT COLO. SPRINGS, CO." sno="07103707"/>
		<site agc="USGS" cat="ST" lat="38.85666667" lng="-104.8369444" sna="MONUMENT CR TRIB 2 AT SONDERMANN PARK AT COLO SPRG" sno="385124104501301"/>
		<site agc="USGS" cat="ST" lat="40.0688333" lng="-104.8319861" sna="BIG DRY CREEK AT MOUTH NEAR FORT LUPTON, CO" sno="06720990"/>
		<site agc="USGS" cat="LK" lat="38.29028038" lng="-104.8294251" sna="PUEBLO RESERVOIR SITE 3B" sno="381725104494400"/>
		<site agc="USGS" cat="ST" lat="38.83721474" lng="-104.8294192" sna="MONUMENT CREEK AT BIJOU ST. AT COLO. SPRINGS, CO" sno="07104905"/>
		<site agc="USGS" cat="ST" lat="41.13109269" lng="-104.8285796" sna="CROW CREEK AT 19TH STREET, AT CHEYENNE, WY" sno="06755960"/>
		<site agc="USGS" cat="ST" lat="38.81638158" lng="-104.8227519" sna="FOUNTAIN CREEK AT COLORADO SPRINGS, CO" sno="07105500"/>
		<site agc="USGS" cat="ST" lat="38.91777057" lng="-104.8185877" sna="MONUMENT CREEK AT PIKEVIEW, CO." sno="07104000"/>
		<site agc="USGS" cat="ST" lat="40.11609435" lng="-104.8185831" sna="SOUTH PLATTE RIVER AT FORT LUPTON, CO." sno="06721000"/>
		<site agc="USGS" cat="ST" lat="39.72508889" lng="-104.8178944" sna="TOLL GATE CREEK ABOVE 6TH AVE AT AURORA, CO" sno="394329104490101"/>
		<site agc="USGS" cat="ST" lat="38.9338817" lng="-104.8171992" sna="MONUMENT CR ABV WOODMEN RD AT COLORADO SPRINGS, CO" sno="07103970"/>
		<site agc="USGS" cat="ST" lat="38.8180484" lng="-104.8169185" sna="SHOOKS RUN AT LAS VEGAS ST AT COLORADO SPRINGS, CO" sno="384905104485901"/>
		<site agc="USGS" cat="ST" lat="38.9272222" lng="-104.8141667" sna="COTTONWOOD CREEK AT MOUTH AT PIKEVIEW, CO" sno="07103990"/>
		<site agc="USGS" cat="ST" lat="35.09138889" lng="-104.8005556" sna="PECOS R ABV CANON DEL UTA NR COLONIAS, NM" sno="08382600"/>
		<site agc="USGS" cat="ST" lat="38.9761111" lng="-104.7986111" sna="KETTLE CREEK ABOVE USAF ACADEMY, CO" sno="07103960"/>
		<site agc="USGS" cat="ST-DCH" lat="38.6624957" lng="-104.7960852" sna="MERRIAMS L. FOUNTAIN DITCH AT FT. CARSON, CO" sno="383944104474201"/>
		<site agc="USGS" cat="ST" lat="38.8030491" lng="-104.7958069" sna="FOUNTAIN CR BLW JANITELL RD BLW COLO. SPRINGS, CO" sno="07105530"/>
		<site agc="USGS" cat="ST" lat="38.8091602" lng="-104.7946959" sna="SPRING CK DS LAS VEGAS ST" sno="384833104473900"/>
		<site agc="USGS" cat="ST" lat="39.8080421" lng="-104.7938618" sna="FIRST CR BEL BUCKLEY RD, AT ROCKY MTN ARSENAL, CO" sno="06720460"/>
		<site agc="USGS" cat="ST-DCH" lat="38.67694" lng="-104.7894182" sna="MERRIAMS ROCK CREEK DITCH AT FT. CARSON, CO" sno="384037104472001"/>
		<site agc="USGS" cat="ST" lat="36.68102778" lng="-104.7863944" sna="VERMEJO RIVER NEAR DAWSON, NM" sno="07203000"/>
		<site agc="USGS" cat="LK" lat="38.2663918" lng="-104.7824795" sna="PUEBLO RESERVOIR SITE 5C" sno="381559104465500"/>
		<site agc="USGS" cat="ST" lat="39.5191557" lng="-104.7796975" sna="CHERRY CREEK NEAR PARKER, CO" sno="393109104464500"/>
		<site agc="USGS" cat="ST" lat="40.35135" lng="-104.7750639" sna="BIG THOMPSON RIV AT CR396 ABV MOUTH NR LA SALLE,CO" sno="06744030"/>
		<site agc="USGS" cat="ST" lat="38.78832768" lng="-104.773862" sna="SAND CREEK ABOVE MOUTH AT COLORADO SPRINGS, CO" sno="07105600"/>
		<site agc="USGS" cat="ST" lat="38.4254722" lng="-104.7715833" sna="WILDHORSE CREEK NEAR STONE CITY AT FT CARSON, CO" sno="382532104461801"/>
		<site agc="USGS" cat="ST" lat="39.3558234" lng="-104.7633092" sna="CHERRY CREEK NEAR FRANKTOWN, CO." sno="06712000"/>
		<site agc="USGS" cat="ST" lat="35.05944444" lng="-104.7611111" sna="PECOS RIVER ABOVE SANTA ROSA LAKE, NM" sno="08382650"/>
		<site agc="USGS" cat="ST" lat="38.64265" lng="-104.7483833" sna="LITTLE FOUNTAIN CREEK NEAR FOUNTAIN, CO" sno="07105940"/>
		<site agc="USGS" cat="ST" lat="38.93943809" lng="-104.7410863" sna="COTTONWOOD CREEK AT WOODMEN RD NR COLO SPRINGS, CO" sno="07103980"/>
		<site agc="USGS" cat="ST" lat="38.7294404" lng="-104.7338611" sna="FOUNTAIN CREEK AT SECURITY, CO" sno="07105800"/>
		<site agc="USGS" cat="LK" lat="38.26722505" lng="-104.7316446" sna="PUEBLO RESERVOIR SITE 7B" sno="381602104435200"/>
		<site agc="USGS" cat="ST" lat="34.88888889" lng="-104.7280556" sna="PINTADA ARROYO NEAR SANTA ROSA, NM" sno="08383300"/>
		<site agc="USGS" cat="ST" lat="33.29986944" lng="-104.721675" sna="RIO HONDO BLW DIAMOND A DAM NR ROSWELL, NM" sno="08390800"/>
		<site agc="USGS" cat="ST" lat="47.10076389" lng="-104.7203167" sna="Yellowstone River at Glendive MT" sno="06327500"/>
		<site agc="USGS" cat="ST" lat="38.2716694" lng="-104.718033" sna="ARKANSAS RIVER ABOVE PUEBLO, CO" sno="07099400"/>
		<site agc="USGS" cat="ST" lat="38.557" lng="-104.7133889" sna="SAND CREEK BELOW FORT CARSON NEAR WIGWAM, CO" sno="383325104424801"/>
		<site agc="USGS" cat="ST" lat="38.5249722" lng="-104.7118056" sna="YOUNG HOLLOW BELOW FORT CARSON NEAR WIGWAM, CO" sno="383130104424201"/>
		<site agc="USGS" cat="ST" lat="44.5894282" lng="-104.7038545" sna="BELLE FOURCHE RIVER AT DEVILS TOWER, WY" sno="06427850"/>
		<site agc="USGS" cat="ST" lat="48.19276389" lng="-104.6978528" sna="Big Muddy Cr Tributary nr Culbertson MT" sno="06185100"/>
		<site agc="USGS" cat="ST" lat="38.64844444" lng="-104.6932222" sna="FOUNTAIN CR BELOW JIMMY CAMP CR NR FOUNTAIN, CO" sno="383854104413601"/>
		<site agc="USGS" cat="ST" lat="35.02416667" lng="-104.6888889" sna="PECOS RIVER BELOW SANTA ROSA DAM, NM" sno="08382830"/>
		<site agc="USGS" cat="ST" lat="38.6844413" lng="-104.688583" sna="JIMMY CAMP CREEK AT FOUNTAIN, CO." sno="07105900"/>
		<site agc="USGS" cat="LK" lat="35.02952778" lng="-104.6868278" sna="SANTA ROSA LAKE NR SANTA ROSA, N.M." sno="08382810"/>
		<site agc="USGS" cat="ST" lat="38.6016647" lng="-104.6702503" sna="FOUNTAIN CREEK NEAR FOUNTAIN, CO." sno="07106000"/>
		<site agc="USGS" cat="ST" lat="37.12946459" lng="-104.6399888" sna="PURGATOIRE RIVER AT MADRID, CO." sno="07124200"/>
		<site agc="USGS" cat="ST" lat="40.41775868" lng="-104.6399624" sna="CACHE LA POUDRE RIVER NEAR GREELEY, CO." sno="06752500"/>
		<site agc="USGS" cat="ST" lat="34.87666667" lng="-104.6380556" sna="PECOS RIVER TRIB NR PUERTO DE LUNA, NM" sno="08383370"/>
		<site agc="USGS" cat="ST" lat="48.16448056" lng="-104.6295194" sna="Big Muddy Creek nr mouth nr Culbertson MT" sno="06185110"/>
		<site agc="USGS" cat="ST" lat="42.2410233" lng="-104.6279601" sna="NORTH PLATTE RIVER BELOW WHALEN DIVERSION DAM, WY" sno="06657000"/>
		<site agc="USGS" cat="ST" lat="38.5630541" lng="-104.6266386" sna="WILLIAMS CR AT THE MOUTH NEAR WIGWAM, CO" sno="383347104373401"/>
		<site agc="USGS" cat="ST" lat="32.29194444" lng="-104.6069444" sna="LAST CHANCE CAN. TR. NR. CARLS. CAV., NM" sno="08405050"/>
		<site agc="USGS" cat="ST" lat="38.50225" lng="-104.6064444" sna="FOUNTAIN CREEK ABOVE YOUNG HOLLOW NEAR WIGWAM, CO" sno="07106200"/>
		<site agc="USGS" cat="ST" lat="38.2984722" lng="-104.6052222" sna="FOUNTAIN CREEK NR DILLON DR AND E. 29TH ST, PUEBLO" sno="381754104361902"/>
		<site agc="USGS" cat="ST" lat="38.31113889" lng="-104.6028889" sna="FOUNTAIN CR ABV 40TH ST AT PUEBLO, CO" sno="381840104361001"/>
		<site agc="USGS" cat="ST" lat="38.2813611" lng="-104.60275" sna="FOUNTAIN CRK NR N ERIE AVE AND E 13 ST, PUEBLO, CO" sno="381653104361002"/>
		<site agc="USGS" cat="ST" lat="38.2877801" lng="-104.6010849" sna="FOUNTAIN CREEK AT PUEBLO, CO." sno="07106500"/>
		<site agc="USGS" cat="ST" lat="38.26691667" lng="-104.5995278" sna="FOUNTAIN CR AT EAST RIVER ST AT PUEBLO, CO" sno="381601104355801"/>
		<site agc="USGS" cat="ST" lat="38.42944444" lng="-104.5980556" sna="FOUNTAIN CREEK NEAR PINON, CO" sno="07106300"/>
		<site agc="USGS" cat="ST" lat="38.25388889" lng="-104.5958333" sna="ARKANSAS RIVER TRIBUTARY ABOVE HWY 227 AT PUEBLO" sno="07099973"/>
		<site agc="USGS" cat="ST-DCH" lat="38.44027778" lng="-104.5936111" sna="SUTHERLAND DITCH AT MOUTH NEAR PINON, CO" sno="382625104353701"/>
		<site agc="USGS" cat="ST" lat="38.25894444" lng="-104.5929444" sna="FOUNTAIN CRK NR S JOPLIN AND S PORTLAND, PUEBLO CO" sno="381532104353503"/>
		<site agc="USGS" cat="ST" lat="44.7010953" lng="-104.5857933" sna="BELLE FOURCHE RIVER BELOW HULETT, WY" sno="06428050"/>
		<site agc="USGS" cat="ST" lat="40.4119253" lng="-104.5627366" sna="SOUTH PLATTE RIVER NEAR KERSEY, CO" sno="06754000"/>
		<site agc="USGS" cat="ST-DCH" lat="36.64864167" lng="-104.5591556" sna="EAGLE TAIL DITCH NR MAXWELL, NM" sno="07202500"/>
		<site agc="USGS" cat="LK" lat="37.14113076" lng="-104.5519312" sna="TRINIDAD LAKE NEAR TRINIDAD, CO." sno="07124400"/>
		<site agc="USGS" cat="ST" lat="37.14390846" lng="-104.5477644" sna="PURGATOIRE RIVER BELOW TRINIDAD LAKE, CO." sno="07124410"/>
		<site agc="USGS" cat="ST" lat="42.20052277" lng="-104.5382908" sna="LARAMIE RIVER NEAR FORT LARAMIE, WY" sno="06670500"/>
		<site agc="USGS" cat="ST-DCH" lat="38.2201111" lng="-104.5359722" sna="BESSEMER DITCH AT ST. CHARLES WD NEAR PUEBLO CO" sno="381312104321001"/>
		<site agc="USGS" cat="ST" lat="34.7300833" lng="-104.5249111" sna="PECOS RIVER NEAR PUERTO DE LUNA, NM" sno="08383500"/>
		<site agc="USGS" cat="ST" lat="48.6728972" lng="-104.5120861" sna="Big Muddy Creek near Antelope MT" sno="06183450"/>
		<site agc="USGS" cat="ST" lat="36.29756944" lng="-104.4954722" sna="CANADIAN RIVER NEAR TAYLOR SPRINGS, NM" sno="07211500"/>
		<site agc="USGS" cat="ST" lat="38.24555835" lng="-104.4863597" sna="ST. CHARLES RIVER AT VINELAND, CO." sno="07108900"/>
		<site agc="USGS" cat="ST" lat="44.78942919" lng="-104.481344" sna="BELLE FOURCHE RIVER NEAR ALVA, WY" sno="06428200"/>
		<site agc="USGS" cat="ST" lat="29.6210127" lng="-104.4810367" sna="Rio Grande abv Rio Conchos nr Presidio, TX" sno="08371500"/>
		<site agc="USGS" cat="ST" lat="48.1235" lng="-104.4733" sna="Missouri River near Culbertson MT" sno="06185500"/>
		<site agc="USGS" cat="ST" lat="33.408775" lng="-104.4717167" sna="RIO HONDO NEAR ROSWELL, NM" sno="08393610"/>
		<site agc="USGS" cat="ST" lat="36.9058333" lng="-104.4361111" sna="RATON CREEK AT RATON, NM" sno="07201000"/>
		<site agc="USGS" cat="ST" lat="32.5886111" lng="-104.4213889" sna="SOUTH SEVEN RIVERS NR LAKEWOOD, NM" sno="08401200"/>
		<site agc="USGS" cat="ST" lat="35.4672222" lng="-104.4166667" sna="TREMENTINA CREEK AT TREMENTINA, NM" sno="07222300"/>
		<site agc="USGS" cat="ST" lat="32.7434472" lng="-104.4141306" sna="RIO PENASCO AT DAYTON, NM" sno="08398500"/>
		<site agc="USGS" cat="ST" lat="38.24805799" lng="-104.3991356" sna="ARKANSAS RIVER NEAR AVONDALE, CO." sno="07109500"/>
		<site agc="USGS" cat="ST" lat="34.60405556" lng="-104.3879167" sna="PECOS RIVER BELOW SUMNER DAM, NM" sno="08384500"/>
		<site agc="USGS" cat="LK" lat="34.6083333" lng="-104.385" sna="LAKE SUMNER NR FORT SUMNER, NM" sno="08384000"/>
		<site agc="USGS" cat="ST" lat="32.2575" lng="-104.3786111" sna="MOSLEY CANYON, NEAR WHITE CITY, NM" sno="08405100"/>
		<site agc="USGS" cat="LK" lat="32.54666667" lng="-104.3786111" sna="BRANTLEY LAKE NEAR CARLSBAD, NM" sno="08401450"/>
		<site agc="USGS" cat="ST" lat="35.6548333" lng="-104.3786111" sna="CANADIAN RIVER NEAR SANCHEZ, NM" sno="07221500"/>
		<site agc="USGS" cat="ST" lat="32.50608056" lng="-104.3749889" sna="ROCKY ARROYO AT HWY BRD NR CARLSBAD, NM" sno="08401900"/>
		<site agc="USGS" cat="LK" lat="36.9838333" lng="-104.3738889" sna="LAKE MALOYA NR RATON NM" sno="07199450"/>
		<site agc="USGS" cat="ST" lat="33.57185556" lng="-104.3736028" sna="PECOS RIVER NEAR ACME, NM" sno="08386000"/>
		<site agc="USGS" cat="ST" lat="34.68784089" lng="-104.3727583" sna="Alamogordo Creek near Fort Sumner, NM" sno="08383950"/>
		<site agc="USGS" cat="ST" lat="32.54318889" lng="-104.3711" sna="PECOS RIVER BELOW BRANTLEY DAM NEAR CARLSBAD, NM" sno="08401500"/>
		<site agc="USGS" cat="ST" lat="32.67268889" lng="-104.3689694" sna="FOURMILE DRAW NR LAKEWOOD, NM" sno="08400000"/>
		<site agc="USGS" cat="ST" lat="35.3358333" lng="-104.3638889" sna="GARITA CR TRIB NR VARIADERO, NM" sno="07222800"/>
		<site agc="USGS" cat="ST" lat="33.31725" lng="-104.3616667" sna="PECOS R N BOUNDARY (BLM WETLANDS) NR DEXTER, NM" sno="08394024"/>
		<site agc="USGS" cat="ST" lat="33.26833333" lng="-104.3544167" sna="PECOS R S BOUNDARY (BLM WETLANDS) NR DEXTER, NM" sno="08394033"/>
		<site agc="USGS" cat="ST" lat="32.29043056" lng="-104.3491667" sna="DARK CANYON DRAW NEAR WHITES CITY, NM" sno="08405105"/>
		<site agc="USGS" cat="ST" lat="33.1251075" lng="-104.3449634" sna="RIO FELIX AT OLD HWY BRD NR HAGERMAN, NM" sno="08394500"/>
		<site agc="USGS" cat="ST" lat="32.51122778" lng="-104.3332889" sna="PECOS R AT DAMSITE 3 NR CARLSBAD, NM" sno="08402000"/>
		<site agc="USGS" cat="ST" lat="32.8408611" lng="-104.3238333" sna="PECOS RIVER NEAR ARTESIA, NM" sno="08396500"/>
		<site agc="USGS" cat="ST" lat="32.98930556" lng="-104.3209722" sna="PECOS RIVER NEAR LAKE ARTHUR, NM" sno="08395500"/>
		<site agc="USGS" cat="ST" lat="34.0633333" lng="-104.3066667" sna="PECOS RIVER NEAR DUNLAP, NM" sno="08385630"/>
		<site agc="USGS" cat="ST" lat="32.689375" lng="-104.2992194" sna="PECOS RIVER (KAISER CHANNEL) NEAR LAKEWOOD, NM" sno="08399500"/>
		<site agc="USGS" cat="ST" lat="34.2661111" lng="-104.2869444" sna="YESO CREEK NEAR FORT SUMNER, NM" sno="08385600"/>
		<site agc="USGS" cat="ST" lat="29.51962973" lng="-104.2865896" sna="Rio Grande bl Rio Conchos nr Presidio, TX" sno="08374200"/>
		<site agc="USGS" cat="ST" lat="32.18458889" lng="-104.2844972" sna="BLUE SPRINGS ABOVE DIVERSIONS NR WHITES CITY, NM" sno="08405450"/>
		<site agc="USGS" cat="ST-CA" lat="34.50827778" lng="-104.2783611" sna="FORT SUMNER MAIN CANAL NEAR FORT SUMNER, NM" sno="08385000"/>
		<site agc="USGS" cat="ST" lat="32.48085556" lng="-104.2629806" sna="PECOS RIVER BELOW AVALON DAM, NM" sno="08404000"/>
		<site agc="USGS" cat="ST" lat="38.2250024" lng="-104.2607996" sna="HUERFANO RIVER NEAR BOONE, CO." sno="07116500"/>
		<site agc="USGS" cat="ST-CA" lat="34.4758333" lng="-104.2583333" sna="SAND GATE DIV FROM FT SUMNER CANAL AT FT SUMNER,NM" sno="08385503"/>
		<site agc="USGS" cat="ST-CA" lat="32.49039444" lng="-104.2527278" sna="CARLSBAD MAIN CANAL AT HEAD NEAR CARLSBAD, NM" sno="08403500"/>
		<site agc="USGS" cat="ST" lat="35.0722222" lng="-104.2466667" sna="PAJARITO CREEK AT NEWKIRK, NM" sno="07225000"/>
		<site agc="USGS" cat="ST" lat="32.40333333" lng="-104.2294444" sna="DARK CANYON AT CARLSBAD, NM" sno="08405150"/>
		<site agc="USGS" cat="ST" lat="32.409275" lng="-104.2149722" sna="PECOS RIVER BELOW DARK CANYON AT CARLSBAD, NM" sno="08405200"/>
		<site agc="USGS" cat="LK" lat="35.402825" lng="-104.1908083" sna="CONCHAS LAKE AT CONCHAS DAM N. MEX." sno="07223500"/>
		<site agc="USGS" cat="ST" lat="34.3322222" lng="-104.1811111" sna="PECOS RIVER BELOW TAIBAN CREEK NEAR FORT SUMNER,NM" sno="08385522"/>
		<site agc="USGS" cat="ST" lat="37.41" lng="-104.1683333" sna="VAN BREMER ARROYO NEAR THATCHER, CO" sno="07126130"/>
		<site agc="USGS" cat="ST-CA" lat="35.37643795" lng="-104.1680313" sna="CONCHAS CANAL BELOW CONCHAS DAM, NM" sno="07223300"/>
		<site agc="USGS" cat="ST" lat="48.036131" lng="-104.161606" sna="MISSOURI R NO. 4 NR NOHLY, MT" sno="06185600"/>
		<site agc="USGS" cat="ST" lat="47.67741389" lng="-104.1554111" sna="Yellowstone River near Sidney MT" sno="06329500"/>
		<site agc="USGS" cat="ST" lat="32.22908889" lng="-104.1518528" sna="BLACK RIVER ABOVE MALAGA, NM" sno="08405500"/>
		<site agc="USGS" cat="ST" lat="37.38566667" lng="-104.1383889" sna="UNNAMED TRIB ABV VAN BREMER ARROYO AT PCMS, CO" sno="372308104081801"/>
		<site agc="USGS" cat="ST" lat="43.4209952" lng="-104.1319162" sna="CHEYENNE RIVER NEAR SPENCER, WY" sno="06386500"/>
		<site agc="USGS" cat="ST" lat="37.3994599" lng="-104.115802" sna="VAN BREMER ARROYO NEAR TYRONE, CO" sno="07126140"/>
		<site agc="USGS" cat="ST" lat="43.85886727" lng="-104.107158" sna="STOCKADE BEAVER CREEK NEAR NEWCASTLE, WY" sno="06392950"/>
		<site agc="USGS" cat="ST" lat="48.00279777" lng="-104.0921583" sna="MISSOURI R NO. 5 AT NOHLY, MT" sno="06185650"/>
		<site agc="USGS" cat="ST" lat="44.52026325" lng="-104.0838239" sna="SAND CREEK NEAR RANCH A, NEAR BEULAH, WY" sno="06429905"/>
		<site agc="USGS" cat="ST" lat="44.153871" lng="-104.07799" sna="COLD SPRINGS CREEK AT BUCKHORN, WY" sno="06429500"/>
		<site agc="USGS" cat="ST" lat="32.24086667" lng="-104.0646861" sna="BLACK RIVER AT MALAGA, NM" sno="08406000"/>
		<site agc="USGS" cat="ST" lat="44.08498109" lng="-104.060489" sna="BEAVER CREEK AT MALLO CAMP, NEAR FOUR CORNERS, WY" sno="06392900"/>
		<site agc="USGS" cat="ST" lat="44.5763739" lng="-104.0560453" sna="MURRAY DITCH AB HEADGATE AT WY-SD STATE LINE" sno="06429997"/>
		<site agc="USGS" cat="ST" lat="32.02314167" lng="-104.0544556" sna="DELAWARE RIVER NR RED BLUFF, NM" sno="08408500"/>
		<site agc="USGS" cat="ST" lat="44.5719044" lng="-104.0535508" sna="REDWATER CR AT WY-SD STATE LINE" sno="06430500"/>
		<site agc="USGS" cat="ST" lat="41.9885755" lng="-104.0532823" sna="NORTH PLATTE RIVER AT WYOMING-NEBRASKA STATE LINE" sno="06674500"/>
		<site agc="USGS" cat="ST" lat="44.74887406" lng="-104.0516018" sna="BELLE FOURCHE R AT WY-SD STATE LINE" sno="06428500"/>
		<site agc="USGS" cat="ST" lat="47.80805556" lng="-104.0422222" sna="YELLOWSTONE R NO. 1 NR FAIRVIEW, MT" sno="06329590"/>
		<site agc="USGS" cat="ST" lat="32.07519167" lng="-104.0394361" sna="PECOS RIVER AT RED BLUFF, NM" sno="08407500"/>
		<site agc="USGS" cat="ST" lat="43.77617218" lng="-104.027154" sna="REDBIRD CANYON NEAR NEWCASTLE, WY" sno="06394300"/>
		<site agc="USGS" cat="ST" lat="32.20754167" lng="-104.023875" sna="PECOS RIVER NEAR MALAGA, NM" sno="08406500"/>
		<site agc="USGS" cat="ST" lat="37.5548333" lng="-104.0212222" sna="BIG ARROYO NEAR THATCHER, CO" sno="07120620"/>
	</sites>
	<colocated_sites>
		<site agc="USGS" cat="ST" lat="38.25361396" lng="-104.6060854" sna="ARKANSAS RIVER AT MOFFAT STREET AT PUEBLO, CO" sno="07099970"/>
		<site agc="USGS" cat="ST" lat="38.25361396" lng="-104.6060854" sna="ARKANSAS R. AT ST CHARLES MESA DIVER. AT PUEBLO,CO" sno="07099969"/>
		<site agc="USGS" cat="ST" lat="44.5705398" lng="-104.0057655" sna="CROW CREEK NEAR BEULAH, WY               SoDakota" sno="10101020"/>
		<site agc="USGS" cat="ST" lat="44.5705398" lng="-104.0057655" sna="CROW CREEK NEAR BEULAH, WY" sno="06430532"/>
	</colocated_sites>
	<sites>
		<site agc="USGS" cat="ST" lat="39.60165335" lng="-105.9966834" sna="SNAKE RIVER BELOW KEYSTONE, CO." sno="393606105594600"/>
		<site agc="USGS" cat="LK" lat="40.10841667" lng="-105.9823611" sna="WINDY GAP RESERVOIR NR PUMP INTAKES NR GRANBY, CO" sno="400631105585501"/>
		<site agc="USGS" cat="ST" lat="41.13830817" lng="-105.9802839" sna="LARAMIE R BL PIONEER CANAL, NR WOODS LANDING, WY" sno="06659502"/>
		<site agc="USGS" cat="ST-CA" lat="41.1391415" lng="-105.9797283" sna="PIONEER CANAL NEAR WOODS, WY" sno="06659501"/>
		<site agc="USGS" cat="ST" lat="39.59443117" lng="-105.9725158" sna="KEYSTONE GULCH NEAR DILLON, CO." sno="09047700"/>
		<site agc="USGS" cat="ST" lat="44.9218611" lng="-105.9659167" sna="L X BAR CREEK AT MOUTH, NEAR MOORHEAD, MT" sno="06324200"/>
		<site agc="USGS" cat="ST" lat="36.20555556" lng="-105.9639722" sna="RIO GRANDE AT EMBUDO, NM" sno="08279500"/>
		<site agc="USGS" cat="LK" lat="40.14805556" lng="-105.9436111" sna="WILLOW CREEK RESERVOIR NEAR DAM NEAR GRANBY, CO" sno="400853105563701"/>
		<site agc="USGS" cat="ST" lat="39.6053611" lng="-105.9431306" sna="SNAKE RIVER NEAR MONTEZUMA, CO" sno="09047500"/>
		<site agc="USGS" cat="ST" lat="38.50277496" lng="-105.9397333" sna="ARKANSAS RIVER NEAR WELLSVILLE, CO." sno="07093700"/>
		<site agc="USGS" cat="ST" lat="40.0813748" lng="-105.9289036" sna="FRASER RIVER AT HWY. 40 AT GRANBY, CO" sno="400453105554200"/>
		<site agc="USGS" cat="ST" lat="39.77887549" lng="-105.9283469" sna="WILLIAMS FORK BELOW STEELMAN CREEK, CO." sno="09035500"/>
		<site agc="USGS" cat="ST" lat="44.94155556" lng="-105.9261944" sna="S A CREEK AT MOUTH, NEAR MOORHEAD, MT" sno="06324300"/>
		<site agc="USGS" cat="ST" lat="36.21085556" lng="-105.9136306" sna="EMBUDO CREEK AT DIXON, NM" sno="08279000"/>
		<site agc="USGS" cat="ST" lat="39.33943296" lng="-105.9116813" sna="TARRYALL CREEK AT UPPER STATION NEAR COMO, CO" sno="06696980"/>
		<site agc="USGS" cat="ST" lat="35.8461111" lng="-105.9097222" sna="RIO NAMBE BELOW NAMBE FALLS DAM NEAR NAMBE, NM" sno="08294210"/>
		<site agc="USGS" cat="ST" lat="39.76026447" lng="-105.9064014" sna="BOBTAIL CREEK NEAR JONES PASS, CO" sno="09034900"/>
		<site agc="USGS" cat="LK" lat="35.84555556" lng="-105.9061111" sna="NAMBE FALLS RESERVOIR NEAR NAMBE, NM" sno="08294200"/>
		<site agc="USGS" cat="ST" lat="35.73955556" lng="-105.9049528" sna="TESUQUE CREEK ABOVE DIVERSIONS NEAR SANTA FE, NM" sno="08302500"/>
		<site agc="USGS" cat="ST" lat="35.9647222" lng="-105.9047222" sna="SANTA CRUZ RIVER NEAR CUNDIYO, NM" sno="08291000"/>
		<site agc="USGS" cat="ST" lat="40.12081915" lng="-105.9005694" sna="COLORADO RIVER NEAR GRANBY, CO" sno="09019500"/>
		<site agc="USGS" cat="ST" lat="33.14488889" lng="-105.8979028" sna="TULAROSA CREEK NEAR BENT, NM" sno="08481500"/>
		<site agc="USGS" cat="ST" lat="40.5399822" lng="-105.88279" sna="JOE WRIGHT CREEK ABOVE JOE WRIGHT RESERVOIR, CO" sno="06746095"/>
		<site agc="USGS" cat="ST" lat="48.0333506" lng="-105.8811227" sna="Missouri River near Oswego MT" sno="06175520"/>
		<site agc="USGS" cat="LK" lat="35.68944444" lng="-105.88" sna="NICHOLS RESERVOIR NEAR SANTA FE N MEX" sno="08316500"/>
		<site agc="USGS" cat="ST" lat="45.0571972" lng="-105.8783778" sna="Powder River at Moorhead MT" sno="06324500"/>
		<site agc="USGS" cat="ST" lat="39.90998657" lng="-105.8783451" sna="ST. LOUIS CREEK NEAR FRASER, CO." sno="09026500"/>
		<site agc="USGS" cat="LK" lat="40.175" lng="-105.8697222" sna="LAKE GRANBY NR PUMP STATION INTAKE NR GRAND LK, CO" sno="401030105521101"/>
		<site agc="USGS" cat="ST" lat="40.49609409" lng="-105.8650119" sna="MICHIGAN RIVER NEAR CAMERON PASS, CO" sno="06614800"/>
		<site agc="USGS" cat="ST" lat="40.5619264" lng="-105.8639" sna="JOE WRIGHT CREEK BELOW JOE WRIGHT RESERVOIR, CO" sno="06746110"/>
		<site agc="USGS" cat="LK" lat="40.1497079" lng="-105.8614013" sna="LAKE GRANBY NEAR GRANBY, CO." sno="09018500"/>
		<site agc="USGS" cat="ST" lat="46.4207722" lng="-105.8600333" sna="Yellowstone River at Miles City MT" sno="06309000"/>
		<site agc="USGS" cat="ST" lat="42.61193835" lng="-105.8596711" sna="BOX ELDER CREEK AT BOXELDER, WY" sno="06647500"/>
		<site agc="USGS" cat="ST" lat="40.32581784" lng="-105.8566791" sna="COLORADO RIVER BELOW BAKER GULCH NR GRAND LAKE, CO" sno="09010500"/>
		<site agc="USGS" cat="WE" lat="40.37465" lng="-105.8546806" sna="WETLAND NR HOLZWARTH SITE IN RMNP, CO" sno="402228105511601"/>
		<site agc="USGS" cat="ST" lat="40.43838889" lng="-105.8518056" sna="COLORADO RIVER BLW LULU CITY SITE NR GRAND LAKE CO" sno="09010160"/>
		<site agc="USGS" cat="ST" lat="35.38138889" lng="-105.8511111" sna="SAN CRISTOBAL ARROYO NR GALISTEO, NM" sno="08317600"/>
		<site agc="USGS" cat="ST" lat="39.9908199" lng="-105.849733" sna="CROOKED CR ABV POLE CREEK AT TABERNASH" sno="395927105505700"/>
		<site agc="USGS" cat="ST" lat="40.00689167" lng="-105.8482722" sna="FRASER RIVER BLW CROOKED CR AT TABERNASH CO" sno="09033300"/>
		<site agc="USGS" cat="ST" lat="46.3845944" lng="-105.8455222" sna="Tongue River at Miles City MT" sno="06308500"/>
